name,authority_id,postcode,lng,lat,closed,statutory2010,statutory2016,type,closed_year,opened_year,replacement,notes
Wantz,1,RM107DX,0.160202539104985,51.552582845799,t,f,f,,2012,,f,now Eastbrook Community Centre
Thames View,1,IG110LG,0.103861148821636,51.5279414380667,f,t,t,LAL,,,f,
Markyate,1,RM8 2LD,0.117862819754107,51.5457020098539,t,f,f,,2012,,f,now a Nursery or Doctors' surgery
Castle Green,1,RM9 4UN,0.126459090003006,51.5333342732973,t,f,f,,2013,,f,Still shown on council website https://www.lbbd.gov.uk/services/castle-green-library/  poss part of school but no mention on school website
Barking,1,IG117NB,0.0797915814246661,51.5363203000661,f,t,t,LAL,,,f,
Rush Green,1,RM7 0TL,0.176149516626235,51.5639158475343,f,f,f,,,,f,"nb collection moved to B&D college, which now runs 'its own' public library (article, April 2016)"
Valence,1,RM8 3HT,0.134173825589532,51.5583110493207,f,t,t,LAL,,,f,
Robert Jeyes community library,1,RM6 6AS,0.142666530641275,51.5726346321106,f,f,f,CRL,,,f,
Marks Gate,1,RM6 5NJ,0.135876693607404,51.5854112428432,f,f,f,CRL,,,f,
Rectory,1,RM109SA,0.15415473693628,51.5390699232288,t,f,f,,2010,,f,
Dagenham,1,RM109QS,0.149601671610258,51.5400707203342,f,t,t,LAL,,,f,
Fanshawe,1,RM9 5DX,0.144875106942789,51.5468928648875,t,f,f,,2010,,f,
Edgware ,2,HA8 8NN,-0.274019525856022,51.6162726126084,f,t,t,LAL,,,f,
Grahame Park ,2,NW9 5XL,-0.245082574058333,51.6017887060823,f,t,t,LAL,,,f,
Chipping Barnet ,2,EN5 4QT,-0.204773166435613,51.6561488888738,f,t,t,LAL,,,f,
Mill Hill ,2,NW7 2HX,-0.243591431134356,51.6149850231988,f,t,t,LAL,,,f,Offer to community be a partnership library
Childs Hill ,2,NW2 2QE,-0.200978544459396,51.5620672750378,f,t,t,LAL,,,f,Offer to community be a partnership library
Golders Green ,2,NW118HE,-0.201776306924474,51.5747587321845,f,t,t,LAL,,,f,
East Barnet ,2,EN4 8SG,-0.161516020016885,51.644383127942,f,t,t,LAL,,,f,Offer to community be a partnership library
Garden Suburb Community Library ,2,NW116LB,-0.18364220067928,51.5861875111828,f,f,f,CRL,,,f,
South Friern ,2,N10 1HD,-0.148231536211729,51.6007773051802,f,t,t,LAL,,,f,Offer to community be a partnership library
East Finchley ,2,N2  9BB,-0.167582306343046,51.5939230820632,f,t,t,LAL,,,f,
Church End ,2,N3  1TR,-0.196691857488251,51.6000301173978,f,t,t,LAL,,2015,f,
Osidge ,2,N11 1EY,-0.149210937887414,51.6292445669182,f,t,t,LAL,,,f,
North Finchley ,2,N12 9HP,-0.174623340447349,51.6185189380607,f,t,t,LAL,,,f,
Friern Barnet Community Library ,2,N11 3DS,-0.153446386694506,51.6135386925677,f,f,f,CRL,,,f,
Hendon ,2,NW4 4BQ,-0.228961339883437,51.5885886779917,f,t,t,LAL,,,f,
Burnt Oak ,2,HA8 0UB,-0.26323496885867,51.6032636544753,f,t,t,LAL,,,f,
Kendray ,3,S70 3NG,-1.45560163485759,53.5419787409889,f,t,t,LAL,,,f,
Worsbrough ,3,S70 5EN,-1.46371878527984,53.5313371011011,f,t,t,LAL,,,f,
Roundhouse ,3,S71 3AE,-1.47956219084854,53.5803490681214,f,t,t,LAL,,,f,
Royston ,3,S71 4EP,-1.45602925713645,53.6004413469395,f,t,t,LAL,,,f,
Priory ,3,S71 5PN,-1.43853775290347,53.5577105797985,f,t,t,LAL,,,f,
Grimethorpe ,3,S72 7BB,-1.38241145683714,53.5753300992466,f,t,t,LAL,,,f,
Cudworth ,3,S72 8UQ,-1.41860406461369,53.5769585159657,f,t,t,LAL,,,f,
Wombwell ,3,S73 0BA,-1.39704664893717,53.5221300171216,f,t,t,LAL,,,f,refurbishment in 2014
Darfield ,3,S73 9LG,-1.37247454571916,53.5334639977782,f,t,t,LAL,,,f,
Hoyland ,3,S74 9AF,-1.43771961198336,53.4998208739388,f,t,t,LAL,,,f,
Dodworth ,3,S75 3RF,-1.52481608616562,53.5423635118673,f,t,t,LAL,,,f,
Mapplewell ,3,S75 6AL,-1.50823910127637,53.5860161381432,f,t,t,LAL,,,f,
Penistone ,3,S36 6BR,-1.63073226255527,53.5235649320969,f,t,t,LAL,,,f,
Thurnscoe ,3,S63 0JS,-1.31119712040229,53.5441827658309,f,t,t,LAL,,,f,
Goldthorpe ,3,S63 9NE,-1.30508386936079,53.5341251921466,f,t,t,LAL,,,f,
Barnsley Central Library ,3,S70 1WA,-1.48082955807204,53.5508545956914,f,t,t,LAL,,,f,new building planned for 2017
Moorland Road,4,BA2 3PL,-2.37944464671511,51.3774881277926,f,t,t,LAL,,,f,
Southside Community Library,4,BA2 1NR,-2.40418305238132,51.3755350813528,f,f,f,CRL,,,f,Library is in Southside Youth Centre adjacent to cafe
Larkhall Community Library,4,BA1 6RA,-2.34643680424149,51.3977227921537,f,f,f,CRL,,,f,Library is inside Oriel Hall
Weston,4,BA1 4BU,-2.39011903127994,51.3959669317134,f,t,t,LAL,,,f,
Bath Central,4,BA1 5AN,-2.35898913501913,51.3835231052731,f,t,t,LAL,,,f,
Paulton (The Hub),4,,,,f,f,t,LAL,,2013,f,
Keynsham,4,BS311FS,-2.49702512542308,51.4141209124213,f,t,t,LAL,,,f,
Saltford,4,BS313DJ,-2.45933142004912,51.4020820641159,f,t,t,LAL,,,f,
Chew Stoke Community Library,4,BS408XE,-2.63268261838048,51.3528893548904,f,f,f,CRL,,,f,"Library is in The Bilbie Room, a function room within the Chew Stoke Inn"
Radstock,4,BA3 3PR,-2.4479561396092,51.291257708435,f,t,t,LAL,,,f,
Midsomer Norton,4,BA3 2DA,-2.48147208599219,51.2859093464263,f,t,t,LAL,,,f,
Coombe Hay Community Library,4,BA2 7EG,-2.38339541128789,51.3379026657421,f,f,f,CRL,,,f,Library is inside Combe Hay Church
Kempston ,5,MK428AU,-0.49345224081466,52.1211073282369,f,t,t,LAL,,,f,
Putnoe ,5,MK418HQ,-0.440873340429908,52.1548425439126,f,t,t,LAL,,,f,
Bromham ,5,MK438NT,-0.533588079379264,52.1496928131766,f,t,t,LAL,,,f,
Bedford Central Library ,5,MK401PG,-0.468231187818367,52.136301361288,f,t,t,LAL,,,f,
Wootton ,5,MK439LH,-0.529010524366254,52.0987544472347,f,t,t,LAL,,,f,
Bostall Library,6,DA7 5RE,0.13116186081477,51.4762522246015,f,t,t,LAL,,,f,
Bexley Community Library,6,DA5 1LU,0.151441593322919,51.4438759542705,f,f,f,CRL,,,f,
Bexley Central Library,6,DA6 7HJ,0.143748996261091,51.4559955051214,f,t,t,LAL,,,f,
Sidcup Library,6,DA144AQ,0.105008260749969,51.4258429582176,f,t,t,LAL,,,f,
Slade Green Community Library,6,DA8 2EL,0.190948875017075,51.4731267264712,f,f,f,CRL,,,f,
Erith Library,6,DA8 1SL,0.181356594126471,51.4791240471022,f,t,t,LAL,,,f,
Upper Belvedere Library,6,DA175EQ,0.145832316345936,51.4838354300536,f,t,t,LAL,,,f,
Welling Library,6,DA163PA,0.106778774978798,51.4624482218915,f,t,t,LAL,,,f,
Blackfen Library,6,DA159LU,0.104274310970305,51.4502538933125,f,f,f,,,,f,
Thamesmead Library,6,SE2 9TR,0.122436993609735,51.4995581298996,f,t,t,LAL,,,f,
North Heath Library,6,DA8 1HW,0.160637522418906,51.4731407247126,f,t,t,LAL,,,f,
Crayford Library,6,DA1 4FN,0.18045254373468,51.4502014860675,f,f,t,LAL,,2012,f,
Harborne Library  ,7,B17 9QG,-1.9515816653518,52.4584124707657,f,t,t,LAL,,,f,
Tower Hill Library,7,B42 1LG,-1.92006942594493,52.5336232263978,f,t,t,LAL,,,f,
Acocks Green Library,7,B27 7XH,-1.82415702159294,52.445040690365,f,t,t,LAL,,,f,
Hall Green Library,7,B28 9AD,-1.84661721898325,52.4339602246694,f,t,t,LAL,,,f,
Perry Common Library,7,B44 0HH,-1.87927651685325,52.5342450057051,f,t,t,LAL,,,f,
Kingstanding Library,7,B44 9ST,-1.88533373526752,52.5519700402689,f,t,t,LAL,,,f,
Frankley Library,7,B45 0EU,-2.01665398919183,52.4048764321282,f,t,t,LAL,,,f,
Weoley Castle Library,7,B29 5HR,-1.96804906473435,52.4390355750773,f,t,t,LAL,,,f,
Selly Oak Library,7,B29 6AE,-1.9359141405429,52.4441019601748,f,t,t,LAL,,,f,
Stirchley Library ,7,B30 2JT,-1.92350865487468,52.4288834909179,f,t,t,LAL,,,f,
Kings Norton Library,7,B30 3EU,-1.92812816417741,52.409809487072,f,t,t,LAL,,,f,
Northfield Library,7,B31 2LB,-1.96743409886749,52.414987053675,f,t,t,LAL,,,f,
West Heath Library,7,B31 3LX,-1.96012518120773,52.4005917308842,f,f,t,LAL,,2013,f,
Quinton Library,7,B32 2TW,-1.98718131040157,52.4602735436175,f,t,t,LAL,,,f,
Birchfield Library,7,B6  6AH,-1.90174086686018,52.5090221014068,f,t,t,LAL,,,f,
Aston Library,7,B6  6EJ,-1.89132024088327,52.50458997306,f,t,t,LAL,,,f,
Bartley Green Library,7,B32 3QG,-1.99849975900856,52.4360641157878,f,t,t,LAL,,,f,
Kents Moat Library,7,B33 8NF,-1.78853556213616,52.476339578071,f,t,t,LAL,,,f,
Glebe Farm Library,7,B33 9NA,-1.79459455416258,52.4904734777107,f,t,t,LAL,,,f,
Sutton Coldfield Library,7,B72 1XX,-1.82309739816105,52.5627353063186,f,t,t,LAL,,,f,refurbished in 2013
Boldmere Library,7,B73 5TU,-1.84057599144284,52.5470638081631,f,t,t,LAL,,,f,
Bloomsbury Library,7,B7  4PT,-1.87148184676948,52.4923887737939,f,t,t,LAL,,,f,
Mere Green Library,7,B75 5BT,-1.82496110364721,52.5874600858926,f,t,t,LAL,,,f,
Walmley Library,7,B76 1NP,-1.80071344081999,52.541124130417,f,t,t,LAL,,,f,
Birmingham Central,7,B3  3HQ,-1.90488214557575,52.4802568572472,t,f,f,,2013,,f,replaced by the new Library of Birmingham
Shard End Library,7,,,,f,f,t,LAL,,2012,f,
Castle Vale Library,7,B35 7PR,-1.78416330650605,52.5214252581086,f,t,t,LAL,,,f,
Ward End Library,7,B8  2HF,-1.83534446875024,52.49479834308,f,t,t,LAL,,,f,
Druids Heath Library,7,B14 5NJ,-1.8893974716412,52.4075231797161,f,t,t,LAL,,,f,
Cocks Moors Woods Neighbourhood Library,7,B14 6ER,-1.8895349517776,52.4172415687682,f,f,f,,,,f,
Kings Heath Library,7,B14 7SW,-1.89295568465002,52.4376161429874,f,t,t,LAL,,,f,
Spring Hill Library,7,B18 7BH,-1.91992097314177,52.4853922327638,f,t,t,LAL,,,f,
Small Heath Library,7,B10 9RX,-1.85502063734994,52.4729245011409,f,t,t,LAL,,,f,
Sparkhill Library,7,B11 4EA,-1.86447003786532,52.4495527106767,f,t,t,LAL,,,f,
Balsall Heath Library,7,B12 9BX,-1.8855014797311,52.4589155039571,f,t,t,LAL,,,f,
Library of Birmingham,7,B1  2ND,-1.9075328523588,52.4800881433563,f,f,t,LAL,,2013,t,replaced the old central library
Yardley Wood Library,7,B14 4DU,-1.85916838128006,52.4186477788021,f,t,t,LAL,,,f,
Handsworth Library,7,B21 9DP,-1.92934773990765,52.5024701088441,f,t,t,LAL,,,f,
Erdington Library,7,B24 9HP,-1.83630384179565,52.5260396464982,f,t,t,LAL,,,f,
South Yardley Library,7,B25 8LT,-1.81662073324115,52.4600785422582,f,t,t,LAL,,,f,
Sheldon Library,7,B26 2RJ,-1.78304135892118,52.4618737372158,f,t,t,LAL,,,f,
Roman Road ,8,BB2 3UY,-2.47220182138177,53.7284308658255,f,t,t,LAL,,,f,
Mill Hill ,8,BB2 4DT,-2.50279516024972,53.7340767450231,f,t,t,LAL,,,f,
Darwen ,8,BB3 3BU,-2.46615152579835,53.6966813749902,f,t,t,LAL,,,f,
Blackburn ,8,BB2 1AG,-2.48502676476137,53.749681510551,f,t,t,LAL,,,f,refurbishment in 2013
Livesey ,8,BB2 5NX,-2.52594352190002,53.7292765312255,f,t,t,LAL,,,f,
Palatine ,9,FY4 1AP,-3.05530683639106,53.7983915927883,f,t,t,LAL,,,f,
Blackpool Central ,9,FY1 1PX,-3.0530842427019,53.8205675327823,f,t,t,LAL,,,f,refurbishment in 2011
Mereside ,9,FY4 4TP,-2.99762101695228,53.7993798340017,f,t,t,LAL,,,f,
Revoe ,9,FY1 5HN,-3.04487083662027,53.8085500035629,f,t,t,LAL,,,f,
Anchersholme ,9,FY5 3RS,-3.02897929513704,53.8696283240496,f,t,t,LAL,,,f,
Layton ,9,FY3 7BD,-3.03343067012898,53.8268685693542,f,t,t,LAL,,,f,
Moor Park ,9,FY2 0JG,-3.03350313155008,53.8495545088217,f,f,t,LAL,,2011,f,
Bispham,9,FY2 0HH,-3.03846268869202,53.8484870087645,f,f,f,,,,f,
Boundary ,9,FY3 7RW,-3.01766819467113,53.8290706758683,f,t,t,LAL,,,f,
Westhoughton Library,10,BL3 5AT,-2.44321345358658,53.5719122612235,f,t,t,LAL,,,f,
High Street Library,10,BL3 6SZ,-2.43910211158836,53.5671635908767,f,t,t,LAL,,,f,
Highfield neighbourhood collection,10,BL4 0RN,-2.42369033261564,53.5449549532796,f,f,f,LAL,,,f,main library closed 12-Jan-12
Farnworth Library,10,BL4 7PG,-2.39675259400773,53.5514111923764,f,t,t,LAL,,,f,
Blackrod Library,10,BL6 5LS,-2.57317692063454,53.5890580867447,f,t,t,LAL,,,f,
Bolton Central Library,10,BL1 1SE,-2.43129423245856,53.5773848253353,f,t,t,LAL,,,f,
Horwich Library,10,BL6 7AJ,-2.54920191332562,53.6018531920996,f,t,t,LAL,,,f,
Bromley Cross Library,10,BL7 9LU,-2.41356372678384,53.6129603608908,f,t,t,LAL,,,f,
Halliwell UCAN neighbourhood collection,10,BL1 3BU,-2.44946737371841,53.5877713576227,f,t,t,LAL,,,f,
Oxford Grove,10,BL1 3EJ,-2.44821058980986,53.5903467433482,t,f,f,,2012,,f,
Heaton neighbourhood collection,10,BL1 5LF,-2.46469329828244,53.5848908152688,f,f,f,LAL,,,f,main library closed 9-Mar-12
Oldhams neighbourhood collection,10,BL1 6RN,-2.43819826411564,53.6053134747265,f,f,f,LAL,,,f,
Astley Bridge,10,BL1 8NP,-2.43487532120908,53.6010831131005,t,f,f,,2012,,f,used as offices by Franking Sense - supplier of franking machines
Castle Hill,10,BL2 2JW,-2.41338322166676,53.5944899922332,t,f,f,,2012,,f,
Tonge UCAN neighbourhood collection,10,BL2 2LE,-2.41213406490518,53.5918876871594,f,f,f,LAL,,,f,
Harwood Library,10,BL2 3HN,-2.39685758081438,53.6045230095564,f,t,t,LAL,,,f,
Breightmet Library,10,BL2 6NT,-2.38427917249008,53.5823539394285,f,t,t,LAL,,,f,
Little Lever Library,10,BL3 1LP,-2.36912878014035,53.5614947673133,f,t,t,LAL,,,f,refurbishment 2016
Ensbury Park,11,BH104DZ,-1.88709834153815,50.7518994894447,f,t,t,LAL,,,f,
West Howe Library,11,BH118DU,-1.90975269468016,50.7581420606191,f,t,t,LAL,,,f,
Kinson Hub,11,BH119AW,-1.9018187889304,50.7691785900832,f,t,t,LAL,,,f,
Boscombe Library,11,BH1 1BY,-1.87728466224618,50.7209638760101,f,t,t,LAL,,,f,
Bournemouth Library,11,BH2 5RQ,-1.88472248613421,50.7206836841064,f,t,t,LAL,,,f,
Westbourne Library,11,BH4 8DX,-1.90291240190463,50.7202415809187,f,t,t,LAL,,,f,
Southbourne Library,11,BH5 2HY,-1.82081770866855,50.7287594924187,f,t,t,LAL,,,f,
Tuckton Library,11,BH6 4LF,-1.78673322761081,50.7277579830244,f,t,t,LAL,,,f,
Springbourne Library,11,BH8 8BX,-1.85265812807457,50.7319514308925,f,t,t,LAL,,,f,
Charminster Library,11,BH8 9HT,-1.8600279008834,50.7456562951193,f,t,t,LAL,,,f,
Castlepoint Library,11,BH8 9UP,-1.84434757396951,50.7513018160148,f,t,t,LAL,,,f,
Winton Library,11,BH9 2EN,-1.8783102211698,50.7461983360841,f,t,t,LAL,,,f,
Sandhurst,12,GU479BL,-0.796596261096863,51.3456963757713,f,t,t,LAL,,,f,
Bracknell Central,12,RG121BH,-0.747933802790128,51.4179146971169,f,t,t,LAL,,,f,refurbished in 2012
Great Hollands,12,RG128UX,-0.770821161340714,51.3994174558101,f,t,t,LAL,,,f,
Whitegrove,12,RG423JP,-0.731380451361691,51.4262522202523,f,t,t,LAL,,,f,
Binfield,12,RG424JZ,-0.791168446551632,51.4308044583451,f,t,t,LAL,,,f,refurbished in 2013
Crowthorne,12,RG457AT,-0.793642098207765,51.3685239669818,f,t,t,LAL,,,f,refurbished in 2013
Harmans Water,12,RG129LP,-0.73230937889985,51.4061919471079,f,t,t,LAL,,,f,
Ascot Heath,12,SL5 8LA,-0.690579422433213,51.4210198042725,f,t,t,LAL,,,f,
Birch Hill,12,RG127WW,-0.752007367363172,51.3908380152344,f,t,t,LAL,,,f,
Clayton ,13,BD146AY,-1.81975742135049,53.7832990432748,f,t,t,LAL,,,f,
Allerton ,13,BD157PA,-1.82034984578303,53.8009613060148,f,t,t,LAL,,,f,
Keighley ,13,,,,f,t,t,LAL,,,f,
Haworth   ,13,BD228EL,-1.95921265868652,53.8320610099434,f,f,f,CRL,,,f,Methodist Chapels initiative in 2016 - set up libraries in Haworth Oxenhope and Lees
Lees,13,BD229DL,-1.93494276374662,53.835250051297,f,f,f,CRL,,,f,Methodist Chapels initiative in 2016 - set up libraries in Haworth Oxenhope and Lees
Oxenhope,13,BD229LJ,-1.95247436504524,53.8115570992611,f,f,f,CRL,,,f,Methodist Chapels initiative in 2016 - set up libraries in Haworth Oxenhope and Lees
Addingham ,13,LS290NS,-1.88466522677088,53.9447379629269,f,f,f,CRL,,,f,Management of the library was transferred to the community in November 2011 and volunteers provide the service with support from Bradford Libraries.
Eccleshill ,13,BD2 4SR,-1.7306677946438,53.8170528769196,f,t,t,LAL,,,f,
St Augustine's ,13,BD3 0DN,-1.74155719107706,53.8023724971576,f,t,t,LAL,,,f,
Thornbury ,13,BD3 8JX,-1.7155044478241,53.7998329034238,f,t,t,LAL,,,f,
Laisterdyke ,13,BD3 8RP,-1.72067949067232,53.793301799754,f,t,t,LAL,,,f,
Bolling Hall ,13,BD4 7LP,-1.73902486745908,53.7798071558538,f,t,t,LAL,,,f,refurbished in 2013
Holme Wood ,13,BD4 9DY,-1.71062156202109,53.7769018220813,f,t,t,LAL,,,f,
Wibsey ,13,BD6 1TR,-1.7771413994934,53.766168264212,f,t,t,LAL,,,f,
Great Horton ,13,BD7 3PE,-1.78557605201743,53.7781017327334,f,t,t,LAL,,,f,
Manningham ,13,BD8 8BB,-1.77186042094491,53.805696531265,f,t,t,LAL,,,f,
Girlington ,13,BD8 9LT,-1.78587388869278,53.8001048571435,t,f,f,,2015,,f,
Heaton,13,BD9 4AX,-1.78504335684358,53.8170546622374,t,f,f,,2015,,f,was in St Barnabas Village Hall
Haworth Road ,13,BD9 6LP,-1.81261799916635,53.8154470624562,f,t,t,LAL,,,f,
Menston ,13,LS296LG,-1.73922504938439,53.8895232255741,f,t,t,LAL,,,f,
Ilkley ,13,LS298HA,-1.82193797347814,53.9243311830812,f,t,t,LAL,,,f,
Idle ,13,BD109PY,-1.72892863818637,53.8347282477799,f,t,t,LAL,,,f,
Burley ,13,LS297HD,-1.74775825412178,53.9126850904362,f,t,t,LAL,,,f,
Bradford Local Studies ,13,BD1 1NN,-1.75512453562562,53.7904648944558,f,t,t,LAL,,,f,
Bradford City Library ,13,BD1 1SD,-1.75509424349874,53.7930623615068,f,t,t,LAL,,,f,refurbished in 2013
Wyke ,13,BD128AL,-1.77138375959809,53.7424919206534,f,t,t,LAL,,,f,
Queensbury ,13,BD131AB,-1.84239462657148,53.7687074094177,f,t,t,LAL,,,f,
Thornton ,13,BD133HW,-1.84612179652678,53.7908406795974,f,t,t,LAL,,,f,
Denholme ,13,BD134BL,-1.89421076587928,53.8024421672199,f,t,t,LAL,,,f,
Wilsden ,13,BD150HT,-1.86188194074401,53.8219851029985,f,f,f,CRL,,,f,Management of the library was transferred to the community in March 2012 and volunteers provide the service with support from Bradford Libraries
Bingley ,13,,,,f,t,t,LAL,,,f,
Baildon ,13,BD176ND,-1.76406221779232,53.8532276148385,f,t,t,LAL,,,f,
Wrose ,13,BD181HX,-1.75591814348761,53.8289799271528,f,f,f,CRL,,,f,Management of the library was transferred to the community in November 2011 and volunteers provide the service with support from Bradford Libraries
Shipley ,13,BD183QH,-1.77880897634019,53.832826155533,f,t,t,LAL,,,f,refurbished in 2015
Silsden,13,BD200AJ,-1.93780702056371,53.9124930794659,f,t,t,LAL,,,f,
Wembley - High Road,14,HA9 6AH,-0.291906255158925,51.5537953724985,f,f,f,,,,f,"Was Barham Volunteer Library, ? moved back to original Barham Park site in 2016"
Wembley,14,HA9 0FJ,-0.281683465001315,51.5590414842895,f,f,t,LAL,,2013,f,
Cricklewood,14,NW2 6UY,-0.227489863556278,51.5570303765641,t,f,f,,2011,,f,Volunteer led - new building going up 2016. Run by Cricklewood Library Ltd
Kingsbury,14,NW9 9HE,-0.276450791718706,51.5860224913622,f,t,t,LAL,,,f,
Neasden,14,NW101QJ,-0.251488980724442,51.5598004010796,t,f,f,,2011,,f,
Kilburn,14,NW6 6NN,-0.205516278762117,51.5354833332553,f,t,t,LAL,,,f,refurbished in 2012
Barham Park,14,HA0 2HB,-0.311224635372571,51.5521326761337,f,f,f,ICL,,,f,"Volunteers have run a library since March 2012 at various sites, in 2016 will return to old library site in Barham Park on 15 yr lease"
Sudbury Town,14,HA0 2LA,-0.315019656101054,51.5517016534958,f,f,f,CRL,,,f,Oct 2015 Barham Library Volunteers set up another library at Sudbury Town Underground station HA0 2LA
Preston,14,,,,f,f,f,ICL,,,f,"April 2015, opened as community library and hub with books, papers and classes. "
Tokyngton,14,HA9 6JE,-0.271809310691781,51.5481776446978,t,f,f,,2011,,f,
Willesden Green,14,NW102SF,-0.228946204140483,51.5466482142072,f,f,t,LAL,,2014,f,
Harlesden,14,NW108SE,-0.249941621983541,51.538096813536,f,t,t,LAL,,,f,
Ealing Road,14,HA0 4BA,-0.297488700101334,51.5491555579088,f,t,t,LAL,,,f,refurbished in 2012
Kensal Rise,14,NW105JA,-0.22728216313596,51.5337999610167,t,f,f,,2011,,f,may re-open in 2016 as new community library
Hollingbury Library,15,BN1 8DA,-0.129880842050772,50.8605407577786,f,t,t,LAL,,,f,
Portslade Library,15,BN411XR,-0.210214560256248,50.8381029963278,f,t,t,LAL,,,f,
Hangleton Library,15,BN3 8LD,-0.195389679328699,50.8450243884541,f,t,t,LAL,,,f,
Hove Library,15,BN3 2EG,-0.177117624066438,50.8283723656715,f,t,t,LAL,,,f,
Saltdean Library,15,BN2 8SP,-0.0419804948904214,50.8017920028729,f,t,t,LAL,,,f,
Jubilee Library,15,BN1 1GE,-0.138904561650989,50.8248281863543,f,t,t,LAL,,,f,
Moulsecoomb Library,15,BN2 4PA,-0.110704712281144,50.8494667090232,f,t,t,LAL,,,f,
Woodingdean Library,15,BN2 6BA,-0.0797375761157747,50.835902627909,f,f,t,LAL,,2013,f,
Rottingdean Library,15,BN2 7HA,-0.0586684490767827,50.8062889334534,f,t,t,LAL,,,f,
Westdene Library,15,BN1 5GN,-0.161758734144511,50.8600400070672,f,t,t,LAL,,,f,
Coldean Library,15,BN1 9ED,-0.113048271645532,50.8639121297443,f,t,t,LAL,,,f,
Patcham Library,15,BN1 8TA,-0.144720356637767,50.8640062598099,f,t,t,LAL,,,f,
Whitehawk Library,15,BN2 5FL,-0.107386427552858,50.8254453165834,f,t,t,LAL,,,f,
Mile Oak Library,15,BN412WS,-0.225773877935092,50.8506435265517,f,t,t,LAL,,,f,
Lawrence Weston ,16,BS110QE,-2.65866705126177,51.5013700328845,f,t,t,LAL,,,f,
Avonmouth ,16,BS119EN,-2.69867476899745,51.500428121728,f,t,t,LAL,,,f,
Shirehampton ,16,BS119TU,-2.67592027480108,51.4873258496846,f,t,t,LAL,,,f,
Hartcliffe ,16,BS130BE,-2.59823546563806,51.4048898984435,f,t,t,LAL,,,f,
Bishopsworth,16,BS137LN,-2.6165047435094,51.4206835418926,f,t,t,LAL,,,f,
Sea Mills ,16,BS9 2NA,-2.64821466683563,51.4917083676679,f,t,t,LAL,,,f,
Westbury ,16,BS9 3JZ,-2.62207258453787,51.4917600771268,f,t,t,LAL,,,f,
Henleaze ,16,BS9 4HP,-2.61234336059059,51.4815878492481,f,t,t,LAL,,,f,
Whitchurch ,16,BS140SX,-2.57152388775883,51.4140958824262,f,t,t,LAL,,,f,
Stockwood ,16,BS148PL,-2.54728949189724,51.4124492247247,f,t,t,LAL,,,f,
Bristol Central ,16,BS1 5TL,-2.60241333761061,51.4514723926919,f,t,t,LAL,,,f,
Fishponds ,16,BS163HL,-2.53309355389769,51.477560169109,f,t,t,LAL,,,f,
Hillfields ,16,BS164HL,-2.51713800128643,51.4749071987025,f,t,t,LAL,,,f,
Trinity Road,16,BS2 0NW,-2.57639833172892,51.4586436765744,t,f,f,,2013,,f,"originally St Philips Public Library, now serviced offices"
St Pauls ,16,BS2 8AL,-2.59287584582131,51.4606475420453,f,t,t,LAL,,,f,
Bedminster,16,BS3 4AQ,-2.59341339499164,51.4443879285777,f,t,t,LAL,,,f,
Marksbury Road ,16,BS3 5LG,-2.60214910721704,51.4335803415084,f,t,t,LAL,,,f,
Filwood ,16,BS4 1JN,-2.58599670097903,51.4247784525376,f,t,t,LAL,,,f,
Knowle ,16,BS4 2QU,-2.56800860031939,51.4344251797417,f,t,t,LAL,,,f,
Wick Road ,16,BS4 4HE,-2.5516441417186,51.4385406145146,f,t,t,LAL,,,f,
Junction 3 ,16,BS5 0JF,-2.56804956340568,51.4643851262921,f,f,t,LAL,,2013,f,
Eastville ,16,BS5 6XP,-2.56766342018195,51.4761839869837,t,f,f,,2016,,f,Question - has this one reopened as a community library?
St George ,16,BS5 8AL,-2.54515397393498,51.4601419143124,f,t,t,LAL,,,f,
Cheltenham Road ,16,BS6 5QX,-2.59265858452281,51.4683184976973,f,t,t,LAL,,,f,
Horfield ,16,BS7 0BD,-2.57377525998437,51.4950725282437,f,t,t,LAL,,,f,
Redland ,16,BS8 2PY,-2.61077415072016,51.4654560800039,f,t,t,LAL,,,f,
Clifton ,16,BS8 4BX,-2.62042697734264,51.454363645417,f,t,t,LAL,,,f,
Henbury ,16,BS107DR,-2.62046900462859,51.5094370316529,f,t,t,LAL,,,f,
Southmead ,16,BS106AS,-2.60288062296436,51.5032976292958,f,t,t,LAL,,,f,
Chislehurst Library,17,BR7 6DA,0.0626952660859678,51.421217602716,f,t,t,LAL,,,f,
Bromley Central Library,17,BR1 1EX,0.0144483689100075,51.4037654582704,f,t,t,LAL,,,f,
Burnt Ash Library,17,BR1 5AF,0.0210817750017567,51.4205127996274,f,t,t,LAL,,,f,
Biggin Hill Memorial Library and Pool,17,TN163LB,0.0362847981706707,51.3123526000595,f,t,t,LAL,,,f,
Shortlands Library,17,BR2 0JP,-0.00584497254031138,51.4003176064473,f,t,t,LAL,,,f,
Hayes Library,17,BR2 7LH,0.017317515544532,51.378131409023,f,t,t,LAL,,,f,
Southborough Library,17,BR2 8AP,0.0451607673715653,51.3902566947864,f,t,t,LAL,,,f,
Beckenham Library,17,BR3 4PE,-0.036959620117701,51.4086307485705,f,t,t,LAL,,,f,
West Wickham Library,17,BR4 0SH,-0.00995891729931692,51.3750907122158,f,t,t,LAL,,,f,
Petts Wood Library,17,BR5 1BP,0.0692301747307869,51.389474348288,f,t,t,LAL,,,f,
St Pauls Cray Library,17,BR5 2RW,0.0996676965398683,51.4050481870102,f,t,t,LAL,,,f,
Penge Library,17,SE207JX,-0.0501852603411094,51.4144540398461,f,t,t,LAL,,,f,refurbished in 2014
Anerley Town Hall,17,SE208BD,-0.0675267929689643,51.4121154093476,f,f,f,,,,f,provides free internet access and collect/drop off books via self service locker
Mottingham Library,17,SE9 4QZ,0.044285223597444,51.4370258704453,f,t,t,LAL,,,f,
Orpington Library,17,BR6 0TW,0.101903863338637,51.3773007671252,f,t,t,LAL,,,f,
Iver Heath,18,SL0 0DA,-0.520015159540032,51.5377500033976,f,f,f,CRL,,,f,
Farnham Common,18,SL2 3NL,-0.61253639505829,51.5545445733549,f,f,f,CRL,,,f,
Marlow Library,18,SL7 1BL,-0.773818426895243,51.5709972044932,f,t,t,LAL,,,f,
Bourne End Library,18,SL8 5SX,-0.710912664926736,51.5789373915342,f,t,t,LAL,,,f,
Gerrards Cross,18,SL9 8EL,-0.551720564810828,51.5882311666374,f,f,f,CRL,,,f,
Chalfont St Peter,18,SL9 9QA,-0.556737818823245,51.6066455569151,f,f,f,CRL,,,f,
Beaconsfield Library,18,HP9 2NJ,-0.650576936588595,51.612895993727,f,t,t,LAL,,,f,
Chalfont St Giles,18,HP8 4QA,-0.569580030433301,51.6326994538611,f,f,f,CRL,,,f,
Little Chalfont,18,HP7 9QA,-0.569004284258046,51.6670593849395,f,f,f,CRL,,,f,
Amersham Library,18,HP6 5AH,-0.602239537696687,51.6762625647554,f,t,t,LAL,,,f,
Chesham Library,18,HP5 2JD,-0.613156963040904,51.7066313021092,f,t,t,LAL,,,f,
Chesham Business Hub,18,HP5 2JD,-0.613156963040904,51.7066313021092,f,t,t,LAL,,,f,
Princes Risborough Library,18,HP270AA,-0.831387497384218,51.7223836939036,f,t,t,LAL,,,f,
Wendover,18,HP226DU,-0.74260527359072,51.762271202363,f,f,f,,,,f,
Aylesbury Library,18,HP201UU,-0.81233742615145,51.8145264435643,f,t,t,LAL,,,f,
Aylesbury Study Centre,18,HP201UU,-0.81233742615145,51.8145264435643,f,t,t,LAL,,,f,
Long Crendon,18,HP189AF,-0.99297807756487,51.7727925230004,f,f,f,CRL,,,f,
Haddenham,18,HP178EE,-0.926179427821158,51.7733433781473,f,f,f,CRL,,,f,
Great Missenden Library,18,HP160AL,-0.706455216375223,51.702803944817,f,f,f,CRL,,,f,
Hazlemere Library,18,HP157PY,-0.71483544966978,51.650123546113,f,t,t,LAL,,,f,
Stokenchurch,18,HP143RG,-0.898388389854971,51.6592177507436,f,f,f,CRL,,,f,
West Wycombe,18,HP143AE,-0.803476436264685,51.6443971633824,f,f,f,CRL,,,f,
Micklefield Library,18,HP137HU,-0.710755927786636,51.6313849522561,f,t,t,LAL,,,f,
Castlefield Library,18,HP123LL,-0.780552382548314,51.6250809515528,f,f,f,CRL,,,f,The Castlefield Community Centre and Community Library are managed by the Karima foundation
High Wycombe Library,18,HP112DH,-0.755175169961032,51.6306952823735,f,t,t,LAL,,,f,
Flackwell Heath,18,HP109AA,-0.711761223101873,51.6014982431287,f,f,f,CRL,,,f,
Winslow,18,MK183DL,-0.883273743109963,51.9459905234594,f,f,f,CRL,,,f,
Steeple Claydon,18,MK182PY,-0.979696546032116,51.936139023906,f,f,f,ICL,,,f,
Buckingham Library,18,MK181JP,-0.985991698418899,52.0001469559337,f,t,t,LAL,,,f,refurbished in 2015
Beacon Villages,18,LU7 9EP,-0.631588555418931,51.835293031113,f,f,f,CRL,,,f,books are provided by Bucks County Council
Wing,18,LU7 0NN,-0.715180308600456,51.8972516039758,f,f,f,CRL,,,f,
Burnham Library,18,SL1 7HR,-0.657857312317124,51.5315127312657,f,t,t,LAL,,,f,
Brandlesholme Community Centre and Library,19,BL8 1HS,-2.31364951960136,53.6087070580957,f,t,t,LAL,,,f,
Ainsworth Library,19,BL2 5RT,-2.35731916202632,53.5879024534611,f,t,t,LAL,,,f,
Ramsbottom Library and Adult Learning Centre,19,BL0 9AE,-2.31938073412473,53.6491300333897,f,t,t,LAL,,,f,
Unsworth Library,19,BL9 8ED,-2.28434714451528,53.5619961796187,f,t,t,LAL,,,f,
Sedgeley Park library,19,M25 0HT,-2.26579097096202,53.5208092317389,f,f,f,CRL,,,f,
West Hampstead Library,22,NW6 1AU,-0.191634136365208,51.5503144609187,f,t,t,LAL,,,f,
Prestwich Library and Adult Learning Centre,19,M25 1AY,-2.28427307588685,53.5329549451272,f,t,t,LAL,,,f,
Radcliffe Library,19,M26 1JA,-2.31102117426924,53.5492831188279,f,t,t,LAL,,,f,
Dumers Lane Community Centre and Library,19,M26 2GN,-2.30333715029201,53.5701109054614,f,t,t,LAL,,,f,
Coronation Road Community Centre and Library,19,M26 3WD,-2.34757253746175,53.5673029509574,f,t,t,LAL,,,f,
Whitefield Library and Adult Learning Centre,19,M45 7NY,-2.29497825989566,53.5472025413243,f,t,t,LAL,,,f,
Topping Fold Community Centre and Library,19,BL9 7NG,-2.26894266581804,53.5968166154974,f,t,t,LAL,,,f,
Moorside Community Centre and Library,19,BL9 6NY,-2.2951395591566,53.6071902156463,f,t,t,LAL,,,f,
South Cross Street library,19,BL9 0RS,-2.28836163906981,53.5906233594142,f,f,f,CRL,,,f,
Castle Leisure Centre Library,19,BL9 0EZ,-2.30129571846256,53.5930452694744,f,t,t,LAL,,,f,
New Kershaw Centre Library,19,BL9 7PZ,-2.27876809620269,53.5951582396575,f,t,t,LAL,,,f,
Bury Library,19,BL9 0DG,-2.2990638517626,53.5914958969022,f,t,t,LAL,,,f,
Tottington Library,19,BL8 3LL,-2.3405296025944,53.6134063155158,f,t,t,LAL,,,f,
Greetland ,20,HX4 8JE,-1.86911818567306,53.6881974335998,f,t,t,LAL,,,f,
Southowram ,20,HX3 9QU,-1.83212987018405,53.7100014998209,f,t,t,LAL,,,f,
Hipperholme,20,HX3 8ND,-1.81137965282352,53.7257447751472,f,t,t,LAL,,,f,
Shelf ,20,HX3 7NT,-1.81679585637044,53.752384780618,f,t,t,LAL,,,f,
Bailiff Bridge ,20,HD6 4DT,-1.77903512393812,53.7203596357545,f,t,t,LAL,,,f,
Northowram ,20,HX3 7EJ,-1.82997937294973,53.7399018046333,f,t,t,LAL,,,f,
Akroyd ,20,HX3 6HG,-1.86473310525834,53.7335914342743,f,t,t,LAL,,,f,
Brighouse,20,HD6 2AF,-1.78604345994023,53.7039780383983,f,t,t,LAL,,,f,
Rastrick ,20,HD6 3NE,-1.7935816139063,53.6896102462922,f,t,t,LAL,,,f,
Skircoat ,20,HX3 0LQ,-1.8633232709492,53.7055200608388,f,t,t,LAL,,,f,
Hebden Bridge,20,HX7 8EP,-2.01206146456844,53.7412347737806,f,t,t,LAL,,,f,
Mytholmroyd ,20,HX7 5HR,-1.98886864839011,53.7257485002917,f,t,t,LAL,,,f,
Todmorden ,20,,,,f,t,t,LAL,,,f,
Walsden ,20,,,,f,t,t,LAL,,,f,
Beechwood Road ,20,HX2 9BU,-1.88411287743299,53.7475701350498,f,t,t,LAL,,,f,
Halifax central library,20,HX1 1UN,-1.85904943254511,53.7242732593111,f,t,t,LAL,,,f,new library planned to open late 2016
Kings Cross ,20,,,,f,t,t,LAL,,,f,
Mixenden ,20,HX2 8PU,-1.90753489264143,53.7501969691441,f,t,t,LAL,,,f,
Ripponden ,20,HX6 4DN,-1.94259280040221,53.6737931118825,f,t,t,LAL,,,f,
Sowerby Bridge,20,,,,f,t,t,LAL,,,f,
Elland,20,HX5 0DF,-1.83771071563758,53.6848784001001,f,t,t,LAL,,,f,
Stainland ,20,HX4 9AF,-1.87179630353461,53.6738912078376,f,t,t,LAL,,,f,
Warboys,21,PE282TA,-0.0792038764077748,52.4036526169144,f,t,t,LAL,,,f,
Yaxley,21,PE7 3JL,-0.251100656905829,52.5168658883491,f,t,t,LAL,,,f,
Whittlesey Library Learning Centre,21,PE7 1BA,-0.1291845369792,52.5564233217137,f,t,t,LAL,,,f,
Huntingdon,21,PE293PA,-0.184421539476251,52.3297348566276,f,t,t,LAL,,,f,
Sawtry Library,21,PE285TQ,-0.279649629149519,52.4368058756441,f,t,t,LAL,,,f,
St Ives,21,PE275BW,-0.0688916842607373,52.3226426390223,f,t,t,LAL,,,f,
Buckden,21,PE195UY,-0.246409435524934,52.2927011471358,f,t,t,LAL,,,f,
St Neots,21,PE192BH,-0.271557476435846,52.2282624959543,f,t,t,LAL,,,f,
Chatteris,21,PE166DY,0.049544332592327,52.4590808595165,f,t,t,LAL,,,f,
March,21,PE159LT,0.0847882812451373,52.5488649079534,f,t,t,LAL,,,f,
East Barnwell,21,,,,f,f,f,,,,f,new library planned? http://www.cambridge-news.co.uk/3m-new-libraries-sawston-cambridge/story-22368777-detail/story.html
Wisbech,21,PE131EU,0.160885750481363,52.6644246627487,f,t,t,LAL,,,f,
Ramsey Library,21,,,,f,t,t,LAL,,,f,
Bassingbourn Library Access Point,21,SG8 5LD,-0.0555705199505556,52.078192355795,f,t,t,,,,f,
Rock Road Library,21,CB1 7UG,0.142028579509141,52.1869059961303,f,t,t,LAL,,,f,
Cherry Hinton Library,21,CB1 9HZ,0.172986469636372,52.1857372809908,f,t,t,LAL,,,f,
Linton,21,CB214JT,0.282129351219075,52.0975574117104,f,t,t,LAL,,,f,
Sawston,21,CB223BP,0.163731146948696,52.1264610842497,f,f,t,LAL,,2016,f,
Great Shelford,21,CB225LZ,0.134977521677054,52.146596901895,f,t,t,LAL,,,f,
Papworth Library,21,CB233UY,-0.118647097115351,52.2510912738976,f,t,t,LAL,,,f,
Cambourne Library,21,CB236HL,-0.0659783416622741,52.2187784149693,f,t,t,LAL,,,f,
Comberton Library,21,CB237DU,0.010440957920254,52.1847351802164,f,t,t,LAL,,,f,
Bar Hill,21,CB238DY,0.0216081958141824,52.25319632826,f,t,t,LAL,,,f,
"Central Library, Cambridge",21,CB2 3QD,0.120516403273784,52.2045951361054,f,t,t,LAL,,,f,
Willingham Library,21,CB245HS,0.0613330342123497,52.314588073724,f,t,t,LAL,,,f,
Cottenham Library,21,CB248QY,0.127567340565305,52.2890276609983,f,t,t,LAL,,,f,
Histon,21,CB249JE,0.104679356493907,52.2531649761123,f,t,t,LAL,,,f,
Burwell Library,21,CB250DU,0.326271791166221,52.2778250653527,f,t,t,LAL,,,f,
Bottisham Library Access Point,21,CB259DL,0.254429974301806,52.2256623393577,f,t,t,,,,f,
Milton Road Library,21,CB4 2BD,0.127737545529949,52.2185014908905,f,t,t,LAL,,,f,
Arbury Court Library,21,CB4 2JQ,0.127845894661677,52.2247489044542,f,t,t,LAL,,,f,
Barnwell Road,21,CB5 8RG,0.163366090924667,52.211163594055,f,t,t,LAL,,,f,
Littleport,21,CB6 1LU,0.309026290385936,52.456555606467,f,t,t,LAL,,,f,
Ely,21,CB7 4ZH,0.266678546783012,52.39979127331,f,t,t,LAL,,,f,
Soham Library,21,CB7 5HJ,0.334484842785007,52.3322539856543,f,t,t,LAL,,,f,
Queens Crescent Library,22,NW5 4HH,-0.151197613049785,51.5504845623946,f,t,t,LAL,,,f,
Holborn Library,22,WC1X8PA,-0.11572844650165,51.5211802288463,f,t,t,LAL,,,f,
Belsize Community Library,22,NW3 3NR,-0.17278197146031,51.5434848834171,f,f,f,ICL,,,f,
Swiss Cottage Library,22,NW3 3HA,-0.173233749711283,51.5422869334848,f,t,t,LAL,,,f,
Keats Community Library,22,NW3 2RR,-0.168233287052114,51.5554817847198,f,f,f,ICL,,,f,"March 2012, KCL took over Heath Library from Camden Council who no longer provide any support"
Chalk Farm,22,NW1 8YN,-0.156838132139054,51.5411851995353,f,f,f,,,,f,
Primrose Hill Community Library,22,NW1 8YN,-0.156838132139054,51.5411851995353,f,f,f,ICL,,,f,"31 March 2012, Chalk Farm Library closed its doors. On 28 April 2012, re-opened as Primrose Hill Community Library."
Regent's Park,22,NW1 3QT,-0.1426353802556,51.5283897192692,t,f,f,,2013,,f,
Camden Town Library,22,NW1 1BD,-0.137768545095275,51.5342475972551,f,t,t,LAL,,,f,
Pancras Square Library,22,N1C 4AG,-0.125061771915517,51.5329391156994,f,f,t,LAL,,2014,f,replaced older building
Highgate Library,22,N19 5DH,-0.14506172940292,51.5633907824408,f,t,t,LAL,,,f,
Kentish Town Library,22,NW5 2AA,-0.140582912919337,51.5501009966459,f,t,t,LAL,,,f,
Kilburn Library Centre,22,NW6 5UH,-0.191148020289334,51.5363867205383,f,t,t,LAL,,,f,
Houghton Regis Library,23,LU5 5ES,-0.51937392455932,51.9049587489289,f,t,t,LAL,,,f,
Barton Library,23,MK454PP,-0.426601684346483,51.9677483079481,f,t,t,LAL,,,f,
Biggleswade Library,23,SG180LL,-0.259387311731709,52.0877986653542,f,t,t,LAL,,,f,refurbished in 2012
Sandy Library,23,SG191EH,-0.289528934089505,52.1293850418585,f,t,t,LAL,,,f,
Potton Library,23,SG192NP,-0.214166319800826,52.1276743146746,f,t,t,LAL,,,f,
Stotfold Library,23,SG5 4HP,-0.234121188544051,52.0149231634367,f,t,t,LAL,,,f,
Flitwick Library,23,MK451QJ,-0.498682659871733,52.0014272396851,f,t,t,LAL,,,f,
Ampthill Library,23,MK452NL,-0.495427781481771,52.0259412819134,f,t,t,LAL,,,f,
Leighton Buzzard Library,23,LU7 1RX,-0.659074441955394,51.9150132195429,f,t,t,LAL,,,f,
Toddington Library,23,LU5 6BP,-0.531662210312904,51.9489283227281,f,t,t,LAL,,,f,
Dunstable Library,23,LU5 4HA,-0.521542984484125,51.8880369184039,f,t,t,LAL,,,f,
Shefford Library,23,SG175DD,-0.33453672767762,52.0381722360785,f,t,t,LAL,,,f,refurbished in 2014
Bollington Library,24,SK105JX,-2.10356274557562,53.2981801515607,f,t,t,LAL,,,f,
Weston,24,SK118RL,-2.15565853134337,53.2575212407047,t,f,f,,2013,,f,
Poynton Library,24,SK121RB,-2.11616936881779,53.3490264528508,f,t,t,LAL,,,f,
Disley Library,24,SK122BB,-2.03822927595429,53.3579937575805,f,t,t,LAL,,,f,
Middlewich Library,24,CW109AS,-2.44285430051907,53.1899403498295,f,t,t,LAL,,,f,
Congleton Library,24,CW121ET,-2.21115010615915,53.1631246228639,f,t,t,LAL,,,f,
Alderley Edge Library,24,SK9 7GP,-2.23651255794214,53.3008128044964,f,t,t,LAL,,,f,
Wilmslow Library,24,SK9 1NW,-2.23260425867412,53.3243439536722,f,t,t,LAL,,,f,
Handforth Library,24,SK9 3ES,-2.21474279385231,53.3490693550119,f,t,t,LAL,,,f,
Crewe Library,24,CW1 2DH,-2.43987313365655,53.0975262964532,f,t,t,LAL,,,f,refurbished in 2016
Alsager Library,24,ST7 2QH,-2.30498065548658,53.0965013925731,f,t,t,LAL,,,f,
Sandbach Library,24,,,,f,t,t,LAL,,,f,refurbished in 2016
Holmes Chapel Library,24,SW4 7AP,-0.13746707706382,51.4614122996603,f,t,t,LAL,,,f,
Knutsford Library,24,WA160PG,-2.37417858410193,53.3020331459715,f,t,t,LAL,,,f,
Macclesfield Library,24,SK101EE,-2.12581197154068,53.2619430575567,f,t,t,LAL,,,f,
Hurdsfield,24,SK102RJ,-2.11418098240676,53.2683997334705,f,f,f,CRL,,,f,
Prestbury Library,24,SK104AL,-2.15292089163411,53.2884191526869,f,t,t,LAL,,,f,
Nantwich Library,24,CW5 5LY,-2.51884377335953,53.0688653441229,f,t,t,LAL,,,f,
Wharton Library,25,CW7 3HP,-2.50346377126412,53.1959828148319,f,t,t,LAL,,,f,
Willaston Library,25,CH642TL,-3.0079627156062,53.2927236837774,f,t,t,LAL,,,f,
Ellesmere Port Library,25,CH650BG,-2.90187934871265,53.2763592426702,f,t,t,LAL,,,f,refurbished in 2011
Little Sutton Library,25,CH661QQ,-2.9476192325804,53.2871778711909,f,t,t,LAL,,,f,
Hope Farm Library,25,CH662LE,-2.92066892385825,53.2658242361889,f,t,t,LAL,,,f,
Tattenhall Library,25,CH3 9AH,-2.78515541963011,53.1344833500056,f,t,t,LAL,,,f,
Tarvin Library,25,CH3 8LY,-2.76867763871802,53.1944046418467,f,t,t,LAL,,,f,
Bishops' High Library ,25,CH3 5XF,-2.864390681244,53.1843278565332,f,t,t,LAL,,,f,
Great Boughton Library,25,CH3 5LB,-2.85447133089215,53.1964808613297,f,t,t,LAL,,,f,
Elton Library,25,CH2 4PU,-2.81930093463156,53.2705551914621,f,t,t,LAL,,,f,
Hoole Library,25,CH2 3AU,-2.87441146750836,53.1987632236162,f,t,t,LAL,,,f,
Upton Library,25,CH2 1HB,-2.88121342721809,53.2099854961692,f,t,t,LAL,,,f,
Saughall,25,CH1 6EN,-2.95838027979992,53.2237364498552,t,f,f,,2013,,f,
Blacon Library,25,CH1 5QY,-2.93278846460417,53.2019789908238,f,t,t,LAL,,,f,
Chester Library,25,CH1 2EF,-2.89279296515648,53.1922175898296,f,t,t,LAL,,,f,Storyhouse planned to open late 2016
Helsby Library,25,WA6 0BW,-2.77052160268484,53.2704669809567,f,t,t,LAL,,,f,
Frodsham Library,25,WA6 6RX,-2.7268206725714,53.2930520041118,f,t,t,LAL,,,f,
Malpas Library,25,SY148JD,-2.76158106926424,53.0277991400232,f,t,t,LAL,,,f,
Barnton Library,25,CW8 4LJ,-2.54896976470274,53.2745606767337,f,t,t,LAL,,,f,
Weaverham Library,25,CW8 3HY,-2.57473244060642,53.2600120776749,f,t,t,LAL,,,f,
Sandiway Library,25,CW8 2NS,-2.5997677978691,53.2343511734384,f,t,t,LAL,,,f,
Neston Library,25,CH646QE,-3.06846899247706,53.2903270936206,f,t,t,LAL,,,f,
Winsford Library,25,CW7 2AS,-2.52870315273157,53.1925475215635,f,t,t,LAL,,,f,
Tarporley Library,25,CW6 0BJ,-2.66575216444449,53.1544567469828,f,t,t,LAL,,,f,
Lache Library,25,CH4 8HR,-2.91143225720384,53.1769206221333,f,t,t,LAL,,,f,
Northwich,25,CW9 5DR,-2.50967065505552,53.2623845073421,f,t,t,LAL,,,f,
City Business library,26,EC2V7HH,-0.0916600851062102,51.5155664372774,f,t,t,LAL,,,f,
Guildhall,26,EC2V7HH,-0.0916600851062102,51.5155664372774,f,t,t,LAL,,,f,
Barbican,26,EC2Y8DS,-0.0941286921321184,51.5199589730331,f,t,t,LAL,,,f,
Artizan Street,26,E1  7AF,-0.0768993367852131,51.5156131045655,f,f,t,LAL,,2012,t,replaced Camomile Street library
Camomile Street Library,26,,,,t,f,f,LAL,2012,,f,replaced by Artizan Street library
Shoe Lane,26,EC4A3JR,-0.106582640673295,51.5154395906681,f,t,t,LAL,,,f,
Perranporth Library,27,TR6 0BW,-5.15283769807549,50.3462769484507,f,t,t,LAL,,,f,
St Columb Library,27,TR9 6AN,-4.93975327200895,50.4352513768538,f,t,t,LAL,,,f,
Newquay Library,27,TR7 1BD,-5.08169436638583,50.4133682076156,f,t,t,LAL,,,f,
St Agnes Library,27,TR5 0TP,-5.20504169782108,50.3102592310612,f,t,t,LAL,,,f,
Roche Micro,27,TR4 9LD,-5.12310165513354,50.2622410250559,f,f,f,CRL,,,f,
Shortlanesend Micro,27,TR4 9DY,-5.0779568550062,50.2879059461213,f,f,f,CRL,,,f,
Devoran Micro,27,TR3 6QA,-5.09322075018335,50.2108562738422,f,f,f,CRL,,,f,
Hayle Library and One Stop Shop,27,TR274DE,-5.41647096279721,50.1898433464689,f,t,t,LAL,,,f,
St Ives Library and One Stop Shop,27,TR262LX,-5.4810474664804,50.2114766727698,f,t,t,LAL,,,f,
Ladock Micro,27,TR2 4PG,-4.96207569091327,50.3205955719288,f,f,f,CRL,,,f,
Goldsithney Micro,27,TR209LG,-5.43671217654592,50.1253618538375,f,f,f,CRL,,,f,
St Just Library,27,TR197HX,-5.68111138682412,50.1241414027488,f,t,t,LAL,,,f,
Penzance Library,27,,,,f,t,t,LAL,,,f,
Vogue Micro,27,TR165NP,-5.19214713168373,50.2379273579395,f,f,f,CRL,,,f,
Redruth Library and One Stop Shop,27,TR152QE,-5.22526218988419,50.2306428306143,f,t,t,LAL,,,f,
Camborne Library,27,TR148HA,-5.29797966930477,50.2115697835816,f,t,t,LAL,,,f,
Helston Library,27,TR138AG,-5.27072359799509,50.0999879645712,f,t,t,LAL,,,f,
Porkellos Micro,27,TR130JR,-5.23153531689207,50.1556300822138,f,f,f,CRL,,,f,
Mullion Micro,27,TR127HN,-5.24324266471883,50.0273415483822,f,f,f,CRL,,,f,
St Keverne Library,27,TR126NQ,-5.08618747362913,50.0494050085092,f,t,t,LAL,,,f,
Truro Community Library,27,TR1 1EP,-5.05148608567269,50.2650267997485,f,t,t,LAL,,,f,
Falmouth Library,27,TR113QA,-5.07294471312167,50.1549190248445,f,t,t,LAL,,,f,
Penryn Library,27,TR108JN,-5.10173914705543,50.1673498333906,f,t,t,LAL,,,f,
Wainhouse Micro,27,EX230BA,-4.57791372828772,50.7302173028329,f,f,f,CRL,,,f,
Bude Library and One Stop Shop,27,EX239LG,-4.4708144929492,50.852232792291,f,t,t,LAL,,,f,
Camelford Library and One Stop Shop,27,PL329PD,-4.67907851995277,50.6225085389535,f,t,t,LAL,,,f,
Bodmin Library and One Stop Shop,27,PL312JX,-4.72429163784838,50.4713885345222,f,t,t,LAL,,,f,
Padstow Library,27,PL288EB,-4.93931067346302,50.5400575918448,f,t,t,LAL,,,f,
Wadebridge Library and One Stop Shop,27,PL277BX,-4.83403121553555,50.5151987865497,f,t,t,LAL,,,f,
St Dennis Micro,27,PL268AF,-4.88279834973625,50.3840372090997,f,f,f,CRL,,,f,
Nanpean Micro,27,,,,f,f,f,CRL,,,f,
St Austell Library,27,PL254LD,-4.78331648530167,50.3393003739033,f,t,t,LAL,,,f,
St Blazey Micro,27,PL242EE,-4.72785696258445,50.3508611025604,f,f,f,CRL,,,f,
Par Library,27,PL242AH,-4.70010183555181,50.3527776430361,f,t,t,LAL,,,f,
Fowey Library and One Stop Shop,27,PL231JS,-4.64592513923887,50.3417725945169,f,t,t,LAL,,,f,
Lerryn Micro,27,PL220PT,-4.61777007579999,50.3828696494554,f,f,f,CRL,,,f,
Lostwithiel Library,27,PL220BL,-4.66990272074493,50.4073555594812,f,t,t,LAL,,,f,
Callington Library,27,PL177BX,-4.31087092847827,50.5050626462957,f,t,t,LAL,,,f,
Launceston Library and One Stop Shop,27,PL159AB,-4.35965486178871,50.6353203714513,f,t,t,LAL,,,f,
Liskeard Library,27,PL146AB,-4.46496328528133,50.4543453289199,f,t,t,LAL,,,f,
Upton Cross Library,27,PL145AX,-4.4245864995681,50.5234717917488,f,t,t,LAL,,,f,
Looe Library and One Stop Shop,27,PL132AF,-4.45781342509089,50.3571379429972,f,t,t,LAL,,,f,
Saltash Library and One Stop Shop,27,PL126DX,-4.22070602641964,50.4099853063861,f,t,t,LAL,,,f,
Polbathic Micro,27,PL113EY,-4.32496638251973,50.3882582011988,f,f,f,CRL,,,f,
Torpoint Library and One Stop Shop,27,PL112AG,-4.19461294705921,50.3749977688114,f,t,t,LAL,,,f,
Finham ,28,CV3 6EP,-1.51736333492936,52.3730483221103,f,t,t,LAL,,,f,
Jubilee Crescent ,28,CV6 3EX,-1.51770956322686,52.431620611555,f,t,t,LAL,,,f,
Cheylesmore ,28,CV3 5JX,-1.50356856054939,52.38896679492,f,t,t,LAL,,,f,
Willenhall,28,CV3 3DP,-1.46313057586699,52.3889879343348,f,t,t,LAL,,,f,
Aldermoor ,28,CV3 1DP,-1.47522924796413,52.398436979028,f,t,t,LAL,,,f,
Caludon ,28,CV2 5BD,-1.45362968340731,52.4146833140381,f,t,t,LAL,,,f,
Stoke ,28,CV2 4EA,-1.48732747050447,52.4096378400959,f,t,t,LAL,,,f,
Bell Green ,28,CV2 1LS,-1.47304006274703,52.4366353848495,f,t,t,LAL,,,f,
Hillifields ,28,CV1 5NP,-1.50103687718269,52.4128160410319,f,t,t,LAL,,,f,
Coventry Central Library ,28,CV1 1FY,-1.51323590180368,52.409126963016,f,t,t,LAL,,,f,refurbished in 2013
Coundon ,28,CV6 1HT,-1.52486493996584,52.4199983653768,f,t,t,LAL,,,f,
Earlsden,28,CV5 6FZ,-1.53096308495499,52.4009725893525,f,t,t,LAL,,,f,
Allesley Park ,28,CV5 9JE,-1.55534348510365,52.4130146386014,f,t,t,LAL,,,f,
Arena Park ,28,CV6 6AS,-1.49254489115098,52.4443532433826,f,t,t,LAL,,,f,
Foleshill ,28,CV6 5BG,-1.4948349519,52.4267783766576,f,t,t,LAL,,,f,
Tile Hill ,28,CV4 9PL,-1.57927451555834,52.4072136262768,f,t,t,LAL,,,f,
Canley ,28,CV4 8FT,-1.55943754766396,52.3946001638104,f,t,t,LAL,,,f,
Purley,29,CR8 3YH,-0.118694682650596,51.3391447414996,f,t,t,CL,,,f,
Coulsdon,29,CR5 2NH,-0.138694417110204,51.3200039443384,f,t,t,CL,,,f,
Bradmore Green,29,CR5 1PE,-0.126575571427134,51.3085337289076,f,t,t,CL,,,f,
South Norwood,29,SE255AA,-0.0774830215947991,51.3969105936448,f,t,t,CL,,,f,
New Addington,29,CR0 0JD,-0.0140907355257254,51.3410328953235,f,f,t,CL,,2013,f,
Broad Green,29,CR0 3HH,-0.117158486239442,51.38537871899,f,t,t,CL,,,f,
Shirley,29,CR0 8BH,-0.0448586550343116,51.3751387841586,f,t,t,CL,,,f,
Sanderstead,29,CR2 0HL,-0.0835219787268525,51.3407957094993,f,t,t,CL,,,f,
Selsdon,29,CR2 8LA,-0.0632717662968868,51.342288146132,f,t,t,CL,,,f,
Norbury,29,SW164UW,-0.122876869756973,51.4050835291574,f,t,t,CL,,,f,
Ashburton,29,CR9 7AL,-0.0632547225825209,51.3828723849984,f,t,t,CL,,,f,
Croydon central library,29,CR9 1ET,-0.0995359911524257,51.37191084459,f,t,t,CL,,,f,
Thornton Heath,29,CR7 7JB,-0.10424471076587,51.397391584963,f,t,t,CL,,,f,
Shap Library,30,CA103NL,-2.67674221169966,54.5289329552633,f,t,t,LAL,,,f,
Lazonby Co-op (Library Link) ,30,CA101BG,-2.70420821781106,54.7498452457802,f,t,t,,,,f,
Ambleside (Local Link) ,30,LA220BZ,-2.96299763016014,54.4298747271375,f,t,t,,,,f,
Coniston (Library Link)  ,30,LA218DU,-3.07583291307685,54.3696942873396,f,t,t,LAL,,,f,
Windermere Library,30,LA232AJ,-2.90599177597179,54.3767328997574,f,t,t,LAL,,,f,
Arnside Library Link ,30,LA5 0DA,-2.83423701658545,54.2020385228399,f,t,t,,,,f,
Kirkby Lonsdale Library,30,LA6 2AL,-2.59742512543919,54.2023315403705,f,t,t,,,,f,
Milnthorpe (Local Link) ,30,LA7 7QJ,-2.771594924245,54.2265068922604,f,t,t,,,,f,
Kendal Library,30,LA9 4PY,-2.74752835728747,54.3291517985836,f,t,t,,,,f,
Alston (Local Link),30,CA9 3RF,-2.44069812713495,54.8123329802386,f,t,t,,,,f,
Broughton in Furness (Library Link),30,LA206HN,-3.21135035138797,54.276527799571,f,t,t,,,,f,
Sedbergh Library,30,LA105BN,-2.52982327498243,54.3234202937146,f,t,t,LAL,,,f,
Dent (Library Link) ,30,LA105QL,-2.45419771809545,54.2776510016268,f,t,t,,,,f,
Grange over Sands Library    ,30,LA116BQ,-2.91134364239858,54.1935166662733,f,t,t,LAL,,,f,
Millom Library,30,LA184DD,-3.26929834573822,54.2090969390272,f,t,t,LAL,,,f,
Ulverston Library,30,LA120BT,-3.09528258636192,54.1934583162126,f,t,t,LAL,,,f,
Brampton Library ,30,,,,f,t,t,LAL,,,f,
Hallbankgate (library link),30,CA8 2NJ,-2.6555358799586,54.9295624231063,f,t,t,,,,f,
Wigton Library,30,CA7 9NJ,-3.16041597742257,54.8241025064455,f,t,t,LAL,,,f,
Silloth Library,30,CA7 4DD,-3.38531747165201,54.8721442080785,f,t,t,LAL,,,f,
Aspatria (Local Link),30,CA7 3EZ,-3.33419164712436,54.763755366637,f,t,t,,,,f,
Longtown (Local Link) ,30,CA6 5UG,-2.96700850352826,55.0103217934836,f,t,t,,,,f,
Carlisle Library,30,CA3 8NX,-2.93407768478558,54.8952536840592,f,t,t,LAL,,,f,
Kells Library,30,CA289PQ,-3.59646514095886,54.5350005080049,f,t,t,,,,f,
Hensingham Library,30,CA288SU,-3.56249175292563,54.5369901962223,f,t,t,,,,f,
Mirehouse Library,30,CA288ER,-3.57138561710142,54.5258916671762,f,t,t,LAL,,,f,
Whitehaven Library ,30,CA287QZ,-3.58568705821799,54.5464222197897,f,t,t,LAL,,,f,
Whitehaven Archive and Local Studies Centre ,30,CA287NL,-3.58570843037133,54.5477701326703,f,t,t,LAL,,,f,
Carlisle West (Library Link),30,CA2 7LE,-2.96727276303934,54.8900062389463,f,t,t,,,,f,
St Bees Library,30,CA270AA,-3.58925061229883,54.4901375339058,f,t,t,LAL,,,f,
Morton Library Link,30,CA2 6JP,-2.96386824019771,54.8858454777555,f,t,t,LAL,,,f,refurbished in 2013
Frizington Library,30,CA263PF,-3.49038234715659,54.5444974981221,f,t,t,LAL,,,f,
Denton Holme Library,30,CA2 5HQ,-2.94128737050308,54.886822399881,f,t,t,LAL,,,f,
Cleator Moor (Local Link),30,CA255AP,-3.51637217256488,54.5212283622491,f,t,t,,,,f,
Thornhill Library  ,30,CA222SJ,-3.52761210242553,54.4647144534322,f,t,t,LAL,,,f,
Egremont Library,30,CA222DQ,-3.5293176718722,54.4843765446756,f,f,t,LAL,,2012,f,
Roose Library,30,LA139RJ,-3.20608254668245,54.1112735772019,f,t,t,LAL,,,f,
Barrow Library  ,30,LA141LL,-3.23148262029079,54.1146025486744,f,t,t,LAL,,,f,
Seascale Library,30,CA201PN,-3.47986741354823,54.396964159162,f,t,t,LAL,,,f,
Barrow Island Library Link,30,LA142SR,-3.22874618168403,54.1038088141452,f,t,t,,,,f,
Walney Library,30,LA143HY,-3.25492379571648,54.1071428606389,f,t,t,LAL,,,f,
Gosforth Library,30,CA201AS,-3.43746328783895,54.4186071879518,f,t,t,LAL,,,f,
Ormsgill (Library Link),30,LA144BP,-3.23189565513596,54.137293300044,f,t,t,,,,f,
Dalton-in-Furness Library,30,LA158AF,-3.18184303981985,54.1571823778493,f,t,t,LAL,,,f,refurbished in 2013
Askam Library,30,LA167AQ,-3.20603150763236,54.1885083960167,f,t,t,LAL,,,f,
Kirkby Stephen (Local Link)  ,30,CA174QX,-2.34787642016063,54.4741580927029,f,t,t,,,,f,
Appleby Library,30,,,,f,t,t,LAL,,,f,
Maryport Library,30,CA156ND,-3.49449600796136,54.7139190672398,f,t,t,LAL,,,f,
Distington Library ,30,CA145TE,-3.54073823463601,54.5975149672342,f,t,t,LAL,,,f,
Moorclose Library,30,CA143SE,-3.55160036496785,54.6279167802828,f,t,t,LAL,,,f,
Workington Library,30,CA142ND,-3.5492533711836,54.6427856644053,f,t,t,LAL,,,f,
Seaton Library,30,CA141JD,-3.52592989471143,54.6617852992769,f,t,t,LAL,,,f,
Harraby (Library Link) ,30,CA1 3PP,-2.89531277432185,54.8803850455528,f,t,t,,,,f,
Petteril Bank House (Library Link) ,30,CA1 3AJ,-2.91034041784442,54.8749531923555,f,t,t,,,,f,
Cockermouth Library,30,CA139LU,-3.36595471154705,54.6638659682422,f,t,t,LAL,,,f,
Keswick Library,30,CA125HD,-3.14017399764317,54.6015113361154,f,t,t,,,,f,
Penrith Library,30,CA117YA,-2.75151892489593,54.6644288150071,f,t,t,LAL,,,f,
Darlington central,31,DL1 1ND,-1.55251481452237,54.5260824694356,f,t,t,LAL,,,f,
Cockerton,31,DL3 9AA,-1.57865874858064,54.5334736995619,f,t,t,LAL,,,f,
Blagreaves,32,DE231PT,-1.50049807993777,52.8886611556544,f,t,t,LAL,,,f,
Pear Tree,32,DE238NQ,-1.4753451341345,52.9051562419246,f,t,t,LAL,,,f,
Sinfin,32,DE243DS,-1.49385533072669,52.8771085920516,f,t,t,LAL,,,f,
"Chaddesden, Phillip Whitehead Memorial Library",32,DE216LN,-1.43482468956699,52.9272642147559,f,f,t,LAL,,2013,f,
Derwent community library (located in the Revive Healthy Living Centre),32,DE216ET,-1.44830467318397,52.9305637127539,f,f,f,CRL,,,f,
Local studies and family history library - in city centre,32,DE1 3AF,-1.47637776367895,52.9243351772283,f,t,t,LAL,,,f,
Alvaston,32,DE248QP,-1.42999872407759,52.8971446000312,f,t,t,LAL,,,f,
Springwood (in the Springwood sports centre),32,DE212RQ,-1.43214172362293,52.9435941276819,f,t,t,LAL,,,f,
Allenton,32,DL3 9AA,-1.57865874858064,54.5334736995619,f,t,t,LAL,,,f,
Dronfield,32,S18 1PY,-1.47508363916728,53.3023569546324,f,t,t,LAL,,,f,
Mickleover,32,DE3 0GA,-1.54556928253549,52.9048970992899,f,t,t,LAL,,,f,
Duffield,32,DE564GH,-1.49103017254275,52.9851397116382,f,t,t,LAL,,,f,
Chellaston,32,DE736TU,-1.43695596908596,52.868429469856,f,t,t,LAL,,,f,
Spondon,32,DE217FG,-1.40451197341055,52.920482055328,f,t,t,LAL,,,f,
Derby central,32,DE1 1HS,-1.47972952335162,52.9226778675231,f,t,t,LAL,,,f,
Allestree,32,DE222QN,-1.49579766318812,52.9440878413068,f,t,t,LAL,,,f,
Mackworth,32,DE224BG,-1.51817592040359,52.9282964433348,f,t,t,LAL,,,f,
Killamarsh,33,S21 1EL,-1.31502780715694,53.3242694758655,f,t,t,LAL,,,f,
Eckington,33,S21 4JG,-1.3563454608092,53.3092453631566,f,t,t,LAL,,,f,
Chesterfield,33,S40 1QN,-1.42801564844151,53.2345712166366,f,t,t,LAL,,,f,refurbished in 2012
Newbold,33,S41 8DU,-1.4506627122298,53.2560802752972,f,t,t,LAL,,,f,
Old Whittington,33,S41 9JZ,-1.4252775112599,53.2701091865853,f,t,t,LAL,,,f,
Holmewood,33,S42 5RB,-1.35339879543958,53.1882561703713,f,t,t,LAL,,,f,
Wingerworth,33,S42 6TB,-1.4428974817433,53.2018679439272,f,t,t,LAL,,,f,
Brimington,33,S43 1JG,-1.39595060939253,53.2571910666424,f,t,t,LAL,,,f,
Staveley,33,S43 3TP,-1.35032170434946,53.2700391474934,f,t,t,LAL,,,f,
Clowne,33,S43 4PL,-1.26557480459277,53.2778263262237,f,t,t,LAL,,,f,
Bolsover,33,S44 6HB,-1.29137942473796,53.2282553892467,f,t,t,LAL,,,f,
Ilkeston,33,DE7 5RN,-1.30906816439918,52.9701086163755,f,t,t,LAL,,,f,
Tideswell,33,SK178NE,-1.77228492183772,53.2793927935343,f,t,t,LAL,,,f,
Glossop,33,SK137DQ,-1.95009507037257,53.4465538677927,f,f,t,LAL,,2014,f,
Gamesley,33,SK136HW,-1.98586825555764,53.4475431209478,f,t,t,LAL,,,f,
Heanor,33,DE757GE,-1.35603101584119,53.0132872605941,f,t,t,LAL,,,f,
Long Eaton,33,NG101JG,-1.27289706879409,52.8956489817794,f,t,t,LAL,,,f,
Sandiacre,33,NG105FJ,-1.29325230211209,52.924574101743,f,t,t,LAL,,,f,
Pinxton,33,NG166NA,-1.31910193641552,53.0914859770885,f,t,t,LAL,,,f,
Shirebrook,33,NG208AL,-1.21400770000987,53.2029246527301,f,t,t,LAL,,,f,
Hadfield,33,SK131AA,-1.96653954678403,53.4618669420041,f,t,t,LAL,,,f,
Matlock,33,DE4 3DP,-1.54985071928057,53.138533906401,f,t,t,LAL,,,f,
Borrowash,33,DE723HE,-1.38113025561438,52.9080201275411,f,t,t,LAL,,,f,
Wirksworth,33,DE4 4EU,-1.57306649651303,53.0825994925249,f,t,t,LAL,,,f,
Bakewell,33,DE451ES,-1.67413921556283,53.2126029305483,f,t,t,LAL,,,f,
Ripley,33,DE5 3JE,-1.40579679413189,53.0503841433195,f,t,t,LAL,,,f,
Alfreton,33,DE557BQ,-1.38816453944183,53.0966790584584,f,t,t,LAL,,,f,
Melbourne,33,DE738GF,-1.42951046060626,52.8221878208736,f,t,t,LAL,,,f,
Belper,33,DE561BA,-1.48571590943731,53.0262516873189,f,t,t,LAL,,,f,
Duffield,33,DE564GH,-1.49103017254275,52.9851397116382,f,t,t,LAL,,,f,
South Normanton,33,DE552AA,-1.34282120837306,53.1047614300474,f,t,t,LAL,,,f,
Ashbourne,33,DE6 1DA,-1.73154121906207,53.0147178456451,f,f,t,LAL,,2013,f,
Etwall,33,DE656NB,-1.60252063969755,52.8813152497888,f,t,t,LAL,,,f,
Somercotes,33,DE554JE,-1.36794549667405,53.0782175465534,f,t,t,LAL,,,f,
Whaley Bridge,33,SK237AA,-1.98411986927925,53.3292802301088,f,t,t,LAL,,,f,
Woodville,33,DE117JB,-1.53351280673352,52.7703046728654,f,t,t,LAL,,,f,
Clay Cross,33,S45 9PH,-1.42317402826955,53.1678226496876,f,t,t,LAL,,,f,
Swadlincote,33,DE110AD,-1.56082945275966,52.7732765471676,f,t,t,LAL,,,f,refurbished in 2014
Creswell,33,S80 4EY,-1.21423019695973,53.2636021966123,f,t,t,LAL,,,f,
Chapel en le Frith,33,SK230HP,-1.91389184176404,53.3235335778046,f,t,t,LAL,,,f,
New Mills,33,SK224AR,-2.00229017642099,53.3680671833527,f,t,t,LAL,,,f,
Hayfield,33,SK222HS,-1.94336358033289,53.37932560169,f,t,t,LAL,,,f,
Buxton,33,SK179HW,-1.907889396961,53.2523293772403,f,t,t,LAL,,,f,
Whitwell,33,S80 4NN,-1.20803719398113,53.283957259784,f,t,t,LAL,,,f,
Dronfield,33,S18 1PY,-1.47508363916728,53.3023569546324,f,t,t,LAL,,,f,
Ilfracombe,34,EX349DS,-4.12052061771391,51.2093688286272,f,t,t,CL,,,f,
Moretonhampstead,34,TQ138LL,-3.763909399431,50.6610208334998,f,t,t,CL,,,f,
Totnes,34,TQ9 5RP,-3.68540908431146,50.4310452299433,f,f,t,CL,,2013,f,
Salcombe,34,TQ8 8JQ,-3.76845739945687,50.235468457402,f,t,t,CL,,,f,
Kingsbridge,34,TQ7 1EB,-3.77768121549706,50.2828618758952,f,t,t,CL,,,f,
Dartmouth,34,TQ6 9ND,-3.57916552635819,50.3520774956573,f,t,t,CL,,,f,
Stoke Fleming,34,TQ6 0QT,-3.59794410651966,50.3281669178615,f,t,t,CL,,,f,
Sidmouth,34,EX108LA,-3.23823139824167,50.6812924314519,f,t,t,CL,,,f,refurbished in 2013
Ottery St Mary,34,EX111DJ,-3.27847667199098,50.7522092225531,f,t,t,CL,,,f,
Seaton,34,EX122NY,-3.07138128684803,50.7050867807457,f,t,t,CL,,,f,
Axminster,34,EX135AD,-2.99771739245919,50.7813260462415,f,t,t,CL,,,f,
Honiton,34,EX141BS,-3.18809665324059,50.7983549801517,f,t,t,CL,,,f,
Cullompton,34,EX151DJ,-3.39336515197921,50.8544479783246,f,t,t,CL,,,f,
Uffculme,34,EX153AY,-3.32489498261145,50.9088613298283,f,t,t,CL,,,f,
Tiverton,34,EX166SA,-3.48507412223891,50.9014204207285,f,t,t,CL,,,f,
Bampton,34,EX169NE,-3.48723029221438,50.9904410813996,f,t,t,CL,,,f,
Crediton,34,EX172AA,-3.65555521242833,50.7912346814829,f,t,t,CL,,,f,
Chulmleigh,34,EX187AA,-3.86989619766476,50.9161149210024,f,t,t,CL,,,f,
Okehampton,34,EX201AR,-4.00182874310222,50.740736544942,f,t,t,CL,,,f,
Holsworthy,34,EX226HA,-4.35281979272003,50.8108269303392,f,t,t,CL,,,f,
Colyton,34,EX246NQ,-3.07025156028498,50.7400438700403,f,t,t,CL,,,f,
St Thomas,34,EX2 9AZ,-3.53952302405177,50.7164894751728,f,t,t,CL,,,f,
Topsham,34,EX3 0DX,-3.46827105598081,50.6852399006411,f,t,t,CL,,,f,
Barnstaple,34,EX311EL,-4.06245870771866,51.0813180047588,f,t,t,CL,,,f,
Braunton,34,EX332ES,-4.1611794547012,51.1108039233462,f,t,t,CL,,,f,
Combe Martin,34,EX340EQ,-4.02750125019194,51.2012247555495,f,t,t,CL,,,f,
Lynton,34,EX356AF,-3.83438409165738,51.2289545583303,f,t,t,CL,,,f,
South Molton   ,34,EX363BU,-3.83310687798951,51.0181332572917,f,t,t,CL,,,f,
Torrington,34,EX388AA,-4.14360768442006,50.9513850006163,f,t,t,CL,,,f,
Northam,34,EX391AW,-4.21328442839936,51.0393284774478,f,t,t,CL,,,f,
Appledore,34,EX391QS,-4.19105726685774,51.0531838855086,f,t,t,CL,,,f,
Bideford,34,EX392HR,-4.20506980099471,51.0165412222663,f,t,t,CL,,,f,
Exeter,34,EX4 3PQ,-3.53049728039942,50.7251160138422,f,t,t,CL,,,f,refurbished in 2013
Pinhoe,34,EX4 8HW,-3.47210054384118,50.7388184477187,f,t,t,CL,,,f,
Clyst Vale,34,EX5 3AJ,-3.43985395676811,50.7585295921382,f,t,t,CL,,,f,
Dawlish,34,EX7 9PY,-3.47103725970328,50.5808008298837,f,t,t,CL,,,f,
Exmouth,34,EX8 1PS,-3.41129651504498,50.6216507260958,f,t,t,CL,,,f,
Budleigh Salterton               ,34,EX9 6RH,-3.32807573382131,50.6302916450997,f,t,t,CL,,,f,
Bovey Tracey,34,TQ139HZ,-3.67605785188162,50.5942545970058,f,t,t,CL,,,f,
Teignmouth,34,TQ148DY,-3.49816310941679,50.5476106945793,f,t,t,CL,,,f,
Buckfastleigh,34,TQ110DD,-3.78076815541846,50.4803409457665,f,t,t,CL,,,f,
Newton Abbot,34,TQ122RJ,-3.61255203733143,50.5306852263294,f,t,t,CL,,,f,
Kingsteignton,34,TQ123AL,-3.59645282553361,50.5457376352366,f,t,t,CL,,,f,
Kingskerswell,34,TQ125EH,-3.5790536831919,50.4997926677281,f,t,t,CL,,,f,
Chudleigh,34,TQ130HL,-3.60125200187695,50.6061265058026,f,t,t,CL,,,f,
Ashburton,34,TQ137QH,-3.75853522508685,50.5170321220529,f,t,t,CL,,,f,
Chagford,34,TQ138DP,-3.83887806663807,50.6720299975827,f,t,t,CL,,,f,
Tavistock,34,PL198AB,-4.14740456258138,50.5477418114431,f,t,t,CL,,,f,
Princetown,34,PL206QE,-3.99173389702729,50.5446816541518,f,t,t,CL,,,f,
Ivybridge,34,PL210SZ,-3.91907776509214,50.3896312205935,f,t,t,CL,,,f,
Conisbrough Community Library  ,35,DN123ND,-1.23328866268465,53.4819390415697,f,f,f,CRL,,,f,
Edlington Library,35,DN121JD,-1.19261324267983,53.4813476690706,f,t,t,LAL,,,f,
Tickhill Library ,35,DN119QU,-1.10950071691489,53.4312831764452,f,t,t,LAL,,,f,
Thorne Library,35,DN8 4BQ,-0.965940130851053,53.6134265196217,f,t,t,LAL,,,f,
Scawthorpe Community Library ,35,DN5 9PQ,-1.16511931445328,53.5439266702314,f,f,f,CRL,,,f,
Rossington Community  Library ,35,DN110LP,-1.07507205587689,53.4759387227786,f,f,f,CRL,,,f,
Bawtry Community Library,35,DN106NE,-1.02142165239235,53.4318706533575,f,f,f,CRL,,,f,
Sprotbrough Community Library,35,DN5 8BA,-1.15648057785555,53.5260326125259,f,f,f,CRL,,,f,
Bentley Area Community Library,35,DN5 0DE,-1.14734380360605,53.5460844067149,f,f,f,CRL,,,f,
Warmsworth Community Library ,35,DN4 9LW,-1.18195772141035,53.4939762511344,f,f,f,CRL,,,f,
Bessacarr Community Library ,35,DN4 7EZ,-1.0870448955006,53.5007678184555,f,f,f,CRL,,,f,
Cantley Community Library,35,DN4 6BT,-1.07623890731105,53.5068510972377,f,f,f,CRL,,,f,
Balby Community Library,35,DN4 0PL,-1.15134352777316,53.5068144547438,f,f,f,CRL,,,f,
Woodlands Community Library and Hub,35,DN6 7SB,-1.19353061800153,53.5656492320464,f,f,f,CRL,,,f,
Askern Community Library,35,DN6 0JA,-1.1502110674353,53.616152760167,f,f,f,CRL,,,f,
Carcroft,35,,,,t,f,f,,2012,,f,
Moorends Community Library ,35,DN8 4SB,-0.95104572400123,53.6282630630767,f,f,f,CRL,,,f,
Armthorpe Community Library,35,DN3 3AL,-1.0606455346799,53.5362935343744,f,f,f,CRL,,,f,
Stainforth4ALL incorporating Stainforth Library,35,DN7 5PW,-1.02991501799754,53.5934949373993,f,t,t,LAL,,,f,
Hatfield Community Library ,35,DN7 6RY,-0.997363836935608,53.5778020946025,f,f,f,CRL,,,f,
Mexborough Library,35,S64 9HS,-1.29155148829836,53.4933544913755,f,t,t,LAL,,,f,
Edenthorpe Community Library,35,DN3 2ND,-1.06899367581771,53.5560530078814,f,f,f,CRL,,,f,
Intake Community Library ,35,DN2 6PL,-1.09706829228931,53.5306684618548,f,f,f,CRL,,,f,
Wheatley Community Library ,35,DN2 4PY,-1.10299688357522,53.539971404855,f,f,f,CRL,,,f,
Doncaster central library,35,DN1 3JE,-1.13208001302441,53.5205367428837,f,t,t,LAL,,,f,refurbished in 2013
Denaby,35,DN124AB,-1.2457919745413,53.4906656564186,f,f,f,ICL,,,f,Old and new sites share same post code new site opened 12 May 2016 as Denaby Community Library and Hub
Shaftesbury,36,SP7 8AE,-2.19552900184812,51.0073095506658,f,t,t,LAL,,,f,
Gillingham,36,SP8 4UA,-2.27591443248906,51.0358234079714,f,t,t,LAL,,,f,
Verwood,36,BH316DS,-1.87935404815993,50.880682707508,f,t,t,LAL,,,f,
West Moors ,36,BH220JD,-1.88914682739283,50.8269983751757,f,t,t,LAL,,,f,
Upton,36,BH165PW,-2.02870160324843,50.7388390247791,f,t,t,LAL,,,f,
Highcliffe,36,BH235HN,-1.69765921355169,50.7431005903374,f,t,t,LAL,,,f,
Ferndown,36,BH229TH,-1.89151940452124,50.8017765585799,f,t,t,LAL,,,f,
Lytchett Matravers,36,BH166BG,-2.07821983815094,50.7578805843459,f,t,t,LAL,,,f,
Christchurch,36,BH231AW,-1.77761957576994,50.7345124577815,f,t,t,LAL,,,f,refurbished in 2013
Corfe Mullen,36,BH213LE,-2.01676837958331,50.7753154199797,f,f,f,CRL,,,f,
Colehill,36,BH212HL,-1.95102769470008,50.8077606472411,f,f,f,CRL,,,f,
Wimborne ,36,BH211HH,-1.98649641916954,50.7992451331125,f,t,t,LAL,,,f,
Wool,36,BH206DL,-2.22779635884829,50.6777749819436,f,f,f,CRL,,,f,
Corfe Castle,36,BH205EE,-2.05406326608259,50.636384873772,f,f,f,CRL,,,f,
Swanage,36,BH192NU,-1.95738124410772,50.608458132998,f,t,t,LAL,,,f,
Wareham,36,BH204LR,-2.10939560892565,50.6851676691464,f,t,t,LAL,,,f,
Sherborne,36,DT9 3AA,-2.51409073745097,50.9485117044501,f,t,t,LAL,,,f,
Beaminster,36,DT8 3EF,-2.73850607146056,50.809919159306,f,t,t,LAL,,,f,
Lyme Regis,36,DT7 3HR,-2.93732546437028,50.7255768001197,f,t,t,LAL,,,f,
Charmouth,36,DT6 6PE,-2.90385820531219,50.7386649594473,f,f,f,CRL,,,f,
Burton Bradstock,36,DT6 4QR,-2.72644250220571,50.7037634776646,f,f,f,CRL,,,f,
Bridport,36,DT6 3NY,-2.75785171587289,50.731863891894,f,t,t,LAL,,,f,
Portland Underhill,36,DT5 1LP,-2.44084554001658,50.5587991345394,t,f,f,,2012,,f,
Portland Tophill,36,DT5 1HG,-2.43459081307738,50.5449105130176,f,t,t,LAL,,,f,
Wyke Regis,36,DT4 9BE,-2.47510124143193,50.5945642237374,f,t,t,LAL,,,f,
Weymouth,36,DT4 8NN,-2.45513088649844,50.6113708120462,f,t,t,LAL,,,f,
Littlemoor,36,DT3 6SF,-2.45529449426864,50.6487894885239,f,t,t,LAL,,,f,
Chickerell,36,DT3 4DT,-2.50086320295494,50.6244386107651,f,f,f,CRL,,,f,
Crossways,36,DT2 8TU,-2.3273813375728,50.6946777871294,f,t,t,LAL,,,f,
Puddletown,36,DT2 8RX,-2.34494227621239,50.7474052762145,f,f,f,CRL,,,f,
Dorchester,36,DT1 1EE,-2.43652701474143,50.7130518270574,f,t,t,LAL,,2013,f,
Blandford,36,DT117DW,-2.16321587364892,50.8566834144807,f,t,t,LAL,,,f,
Stalbridge,36,DT102RG,-2.37711336191611,50.9599333512343,f,f,f,CRL,,,f,
Sturminster Newton,36,DT101EH,-2.30599091852937,50.9273104133052,f,t,t,LAL,,,f,
Cradley ,37,B63 2TL,-2.08612907951108,52.4612405512567,f,t,t,LAL,,,f,
Lye ,37,DY9 8BT,-2.1148160634998,52.4563255650948,f,t,t,LAL,,,f,
Brierley Hill ,37,DY5 3ET,-2.12095057657989,52.4823364381546,f,t,t,LAL,,,f,refurbished in 2011
Long Lane,37,B62 9JY,-2.03098594172896,52.4677587376629,f,t,t,LAL,,,f,
Sedgley  ,37,DY3 3UA,-2.12262694142582,52.5396274422062,f,t,t,LAL,,,f,
Netherton ,37,DY2 9ES,-2.08244625687644,52.4908561324869,f,t,t,LAL,,,f,refurbished in 2012
Woodside Library Link,37,DY2 0SN,-2.10653944093661,52.4963656525481,f,t,t,LAL,,,f,
Dudley Wood Library Link,37,DY2 0DB,-2.08526524996565,52.4787626416095,f,t,t,LAL,,,f,
Quarry Bank Library Link,37,DY5 1EA,-2.10209533163664,52.4728069093857,f,t,t,LAL,,,f,
Pensnett Library Link,37,DY5 4DS,-2.13112099597774,52.5006021427282,f,t,t,LAL,,,f,
Dudley ,37,DY1 1HR,-2.08518185366218,52.5117108213393,f,t,t,LAL,,,f,refurbished in 2012
Gornal ,37,DY3 2PG,-2.13068448126021,52.5172969072836,f,t,t,LAL,,,f,
Stourbridge ,37,DY8 1YE,-2.14801818742335,52.4570257843779,f,t,t,LAL,,,f,
Coseley,37,WV149DW,-2.08755508099581,52.5417443036371,f,t,t,LAL,,,f,
Halesowen ,37,B63 4AZ,-2.05196895350546,52.4487914409071,f,t,t,LAL,,,f,
Wordsley ,37,DY8 5PD,-2.16469174083191,52.4806024176971,f,t,t,LAL,,,f,
Kingswinford ,37,DY6 9LG,-2.16704397242755,52.4951628430197,f,t,t,LAL,,,f,
Brandon Library,38,DH7 8NN,-1.63061101320194,54.7509789188282,f,t,t,LAL,,,f,
Esh Winning Library,38,DH7 9AD,-1.71022647242878,54.7673079674844,f,t,t,LAL,,,f,
Langley Park Library,38,DH7 9XE,-1.6709301833037,54.7985797919487,f,t,t,LAL,,,f,
Consett Library,38,,,,f,t,t,LAL,,,f,
Stanley Library,38,DH9 0DQ,-1.6919598149803,54.8722518833993,f,t,t,LAL,,,f,refurbished in 2014
South Moor Library,38,DH9 7PX,-1.70166142658846,54.8625707723672,f,t,t,LAL,,,f,
Annfield Plain Library,38,DH9 8EZ,-1.74269875719284,54.8622511740787,f,t,t,LAL,,,f,
Peterlee Library,38,SR8 1NT,-1.33693273644933,54.7601452147389,f,t,t,LAL,,,f,
Barnard Castle Library,38,DL128JB,-1.92235631457661,54.5435371225856,f,t,t,LAL,,,f,refurbished in 2014
Wolsingham Library,38,DL133AB,-1.88335269338336,54.7297373133185,f,t,t,LAL,,,f,
Woodhouse Close Library,38,DL146JX,-1.68089984735907,54.6503183263441,f,t,t,LAL,,,f,
Bishop Auckland Library,38,DL147NP,-1.67259136474736,54.6659600129188,f,t,t,LAL,,,f,
Coundon Library,38,DL148NL,-1.6271879836624,54.6617848924915,f,t,t,LAL,,,f,
Willington Library,38,DL150PG,-1.69346196103244,54.7109478708078,f,t,t,LAL,,,f,
Crook Library and Customer Access Point (CAP),38,DL159ES,-1.74555303689988,54.7154447595853,f,t,t,LAL,,,f,refurbished in 2012
Spennymoor Library,38,DL166DJ,-1.59944850809908,54.7002313989871,f,t,t,LAL,,,f,
Shotton Library,38,DL6 2LW,-1.36434040631676,54.4254024517707,f,t,t,LAL,,,f,
Ferryhill Library,38,DL178HX,-1.55381565516922,54.6901148533227,f,t,t,LAL,,,f,
Cornforth Library,38,DL179HP,-1.52000299004758,54.7027738210838,f,t,t,LAL,,,f,
Easington Colliery Library,38,SR8 3PN,-1.3305053942374,54.7880226004831,f,t,t,LAL,,,f,
Shildon Library,38,DL4 1DU,-1.64775520065425,54.6335741204018,f,t,t,LAL,,,f,
Newton Aycliffe Library,38,,,,f,t,t,LAL,,,f,
Chilton Library,38,DL170EX,-1.55893607207301,54.6599471706226,f,t,t,LAL,,,f,
Horden Library,38,SR8 4PF,-1.32098766226928,54.7667072118544,f,t,t,LAL,,,f,
Wingate Library,38,TS285AA,-1.37932264718072,54.7257975473009,f,t,t,LAL,,,f,
Bowburn Library,38,DH6 5AT,-1.52449569875507,54.733939338586,f,t,t,LAL,,,f,
Thornley Library,38,DH6 3EL,-1.43521471298769,54.7495708456227,f,t,t,LAL,,,f,
Chester-le-Street Library,38,DH3 3BP,-1.57397516059044,54.8551539162052,f,t,t,LAL,,,f,
Trimdon Library,38,TS296PY,-1.42845717075221,54.6998516704171,f,t,t,LAL,,,f,
Sedgefield Library,38,TS213AT,-1.44795115145878,54.6537499629504,f,t,t,LAL,,,f,
Pelton Library,38,DH2 1HS,-1.60334624970937,54.8732172006569,f,t,t,LAL,,,f,
Newton Hall Library,38,DH1 5NL,-1.57706190911617,54.7997629680058,f,t,t,LAL,,,f,
Seaham Library,38,SR7 7JE,-1.3355053502306,54.8358949256525,f,t,t,LAL,,,f,
Belmont Library,38,DH1 2AA,-1.52487744825938,54.7862698895526,f,t,t,LAL,,,f,
Durham Clayport Library,38,DH1 1WA,-1.57466109962175,54.7780340887029,f,t,t,LAL,,,f,
Blackhall Library,38,TS274HD,-1.28951431020934,54.7471605937727,f,t,t,LAL,,,f,
Murton Library,38,SR7 9QR,-1.38792658718405,54.819410410183,f,t,t,LAL,,,f,
Lanchester Library,38,DH7 0NT,-1.745766866707,54.8227263737823,f,t,t,LAL,,,f,
Sacriston Library,38,DH7 6HU,-1.62548001227955,54.8204560886994,f,t,t,LAL,,,f,
Northfields Library,39,W5  4UA,-0.313533284720105,51.4982660304104,f,t,t,CL,,,f,
Hanwell Library,39,W7  3HL,-0.336116535812551,51.5099278880395,f,t,t,CL,,,f,refurbished in 2013
Ealing Central Library,39,W5  5JY,-0.303163808525401,51.512522192334,f,t,t,CL,,,f,
Pitshanger Library,39,W5  1RH,-0.314695650361855,51.5257272939849,f,t,t,CL,,,f,
Acton Town Hall Library,39,W3  6NE,-0.267914584972278,51.5064047197414,f,t,t,CL,,,f,
West Ealing Library,39,W13 9BT,-0.324834566941345,51.5087062129414,f,t,t,CL,,,f,
Greenford Library,39,UB6 9LG,-0.355258307425216,51.5298099890527,f,t,t,CL,,,f,
Perivale Library,39,UB6 7NT,-0.323933408570658,51.5399325591891,f,t,t,CL,,,f,refurbished in 2013
Wood End Library,39,UB6 0EE,-0.348361710742084,51.5526612995987,f,t,t,CL,,,f,refurbished in 2011
Northolt Library,39,UB5 5AS,-0.386453812979568,51.5392623823815,f,t,t,CL,,,f,
Northolt Leisure Centre Library,39,UB5 4AB,-0.369735333505577,51.5491115416449,f,t,t,CL,,,f,
Southall Library (Dominion Centre and Library),39,UB2 4BQ,-0.381772144472761,51.5025275593486,f,t,t,CL,,,f,refurbished in 2013
Jubilee Gardens Library,39,UB1 2TJ,-0.369390912183327,51.5212218519396,f,t,t,CL,,,f,
Market Weighton ,40,YO433JP,-0.658742489246747,53.8634756536663,f,t,t,LAL,,,f,
North Ferriby ,40,HU143DA,-0.502084497944237,53.7202094692073,f,t,t,LAL,,,f,
Swanland ,40,HU143QR,-0.48775710934374,53.7402187877796,f,t,t,LAL,,,f,
Brough ,40,HU151DF,-0.569238389345621,53.7286616994064,f,t,t,LAL,,,f,
Snaith ,40,DN149HE,-1.02924993597462,53.6916807023061,f,t,t,LAL,,,f,
Howden ,40,DN147BJ,-0.86600532552731,53.745940171529,f,t,t,LAL,,,f,
Goole ,40,DN145DS,-0.869119401965907,53.7039299601218,f,t,t,LAL,,,f,
South Cave ,40,HU152EP,-0.604478241153286,53.7676483091358,f,t,t,LAL,,,f,
Cottingham ,40,HU165QG,-0.414673415026321,53.7812981191014,f,t,t,LAL,,,f,
Hessle ,40,HU130RB,-0.435036150149605,53.7239099894029,f,t,t,LAL,,,f,
Leven ,40,HU175NG,-0.313751698525402,53.8926532312077,f,t,t,LAL,,,f,
Beverley ,40,HU178HE,-0.433340435717779,53.8395761430706,f,t,t,LAL,,,f,
Hornsea ,40,HU181PA,-0.167812136598854,53.9120525924414,f,t,t,LAL,,,f,
Withernsea ,40,HU192HH,0.0356959094730776,53.7287388731853,f,t,t,LAL,,,f,
Hedon ,40,HU128EX,-0.198756381029057,53.740142833705,f,t,t,LAL,,,f,
Anlaby ,40,HU107DE,-0.433081353195829,53.7467256346697,f,t,t,LAL,,,f,
Willerby ,40,HU106BZ,-0.447171037968062,53.7602576879943,f,t,t,LAL,,,f,
Pocklington ,40,YO422QU,-0.780836409787751,53.9293597332162,f,t,t,LAL,,,f,
Flamborough ,40,YO151NG,-0.123336164226709,54.1152208931545,f,t,t,LAL,,,f,
Stamford Bridge,40,YO411BP,-0.912588295611118,53.9893356252495,f,t,t,LAL,,,f,
Driffield ,40,YO256RQ,-0.440632046536378,54.0051636509037,f,t,t,LAL,,,f,refurbished in 2015
Bridlington North ,40,YO166YD,-0.181991785897618,54.1016851068413,f,t,t,LAL,,,f,
Bridlington ,40,YO152DF,-0.19121062633963,54.0820933892599,f,t,t,LAL,,,f,
Langney Library,41,BN237RT,0.303892757697397,50.8033421110901,f,t,t,LAL,,,f,
Pevensey Bay Library,41,BN246AU,0.351015030817839,50.8129696711564,f,t,t,LAL,,,f,
Eastbourne Library,41,BN2 4TL,-0.108557882283058,50.846697916488,f,t,t,LAL,,,f,
Seaford Library,41,BN251QX,0.102897898268303,50.7734397227676,f,t,t,LAL,,2014,f,
Alfriston Village Library,41,BN265XB,0.153780972529695,50.810608848976,f,f,f,,,,f,
Polegate Library,41,BN266QF,0.245508933415407,50.8247891207803,f,t,t,LAL,,,f,
Hailsham Library,41,BN273DN,0.25503775540398,50.8625145155128,f,t,t,LAL,,,f,
Hastings Childrens Library,41,TN341HL,0.577972330983152,50.8552136919151,f,t,t,LAL,0,,f,"Closed 20 Feb, re-opened 7 Mar 2016 as temporary site for main Library. "
Hastings Library,41,TN341HE,0.576254081453632,50.8552336647186,f,t,t,LAL,,,f,Closed for refurb Feb 2016 to re-open Spring 2017
Mayfield Library,41,TN206TA,0.263245240471502,51.0206548873997,f,t,t,LAL,,,f,
Ringmer Library,41,BN8 5QH,0.0558656436975663,50.893039692998,f,t,t,LAL,,,f,
Crowborough Library,41,,,,f,t,t,LAL,,,f,
Newhaven Library,41,BN9 9PD,0.0485850127759694,50.7941297616594,f,t,t,LAL,,,f,
Uckfield Library,41,TN221AR,0.0959803189090561,50.9724948953411,f,t,t,LAL,,,f,
Forest Row Library,41,RH185DZ,0.0373141342692455,51.0952313448434,f,t,t,LAL,,,f,
Heathfield Library,41,TN218LU,0.252577989843641,50.9717825596318,f,t,t,LAL,,,f,
Wadhurst Library,41,TN5 6AP,0.339911074930247,51.0618375533701,f,t,t,LAL,,,f,
Battle Library,41,TN330XB,0.482432361491057,50.9181312466362,f,t,t,LAL,,,f,
Rye Library,41,TN317JF,0.733230919558967,50.9511757835531,f,t,t,LAL,,,f,
Northiam Village Library,41,TN316LP,0.601013279420242,50.993591427337,f,f,f,CRL,,,f,
Lewes Library,41,BN7 2LZ,0.0135032263676935,50.8728951890381,f,t,t,LAL,,,f,
Sedlescombe Village Library,41,TN330QN,0.53177392032974,50.9361568669951,f,f,f,CRL,,,f,
Peacehaven Library,41,BN108BB,0.00111802535194823,50.7957452943164,f,t,t,LAL,,,f,
Bexhill Library,41,TN401DY,0.47069709661478,50.8402663171975,f,t,t,LAL,,,f,
Hollington Library,41,TN377AG,0.553466006224203,50.8740290423836,f,t,t,LAL,,,f,
Ore Library,41,TN355BP,0.60834711257306,50.874721722188,f,t,t,LAL,,,f,
Willingdon Library,41,BN209PN,0.24748347320708,50.8082472648797,f,t,t,LAL,,,f,
Hampden Park Library,41,BN229NQ,0.277737453182852,50.7975601028126,f,t,t,LAL,,,f,
John Jackson,42,EN1 1DW,-0.0670171351721923,51.6461026871393,f,t,t,LAL,,,f,
Winchmore Hill,42,N21 3AP,-0.0984439275278878,51.6284062782112,f,t,t,LAL,,,f,
Fore Street,42,N18 2XF,-0.0653386425322199,51.6125242645029,f,t,t,LAL,,,f,
Angel Raynham,42,N18 2JQ,-0.0609958426965912,51.6130910711222,f,t,t,LAL,,,f,
Ponders End,42,EN3 4EY,-0.0473040161488034,51.6446974001459,f,t,t,LAL,,,f,
Millfield House,42,N18 1PJ,-0.078312654841335,51.6161994733643,f,t,t,LAL,,,f,
Oakwood,42,N14 4XA,-0.129173458109799,51.6488360265069,f,t,t,LAL,,,f,
Enfield Highway,42,EN3 5BN,-0.0474875887536573,51.6589264721376,f,t,t,LAL,,,f,
Enfield Island village,42,EN3 6GS,-0.0169922842112462,51.6685858989783,f,t,t,LAL,,,f,
Bowes Road,42,N11 1BD,-0.129837806798166,51.6154759808592,f,t,t,LAL,,,f,
Southgate Circus,42,N14 6BP,-0.128138775836937,51.6307898822325,f,t,t,LAL,,,f,
Pelaw Library,44,NE100QS,-1.54505696218284,54.9541779838561,f,t,t,LAL,,,f,
Palmers Green,42,N13 4EY,-0.110622282034752,51.6155819225682,f,t,t,LAL,,,f,Major refurbishment 2015
Edmonton Green,42,N9  0TN,-0.0583532168516371,51.6235685652746,f,t,t,LAL,,,f,
Ordnance Unity centre,42,EN3 6ND,-0.0390729563542047,51.6726525627572,f,t,t,LAL,,2014,f,
Bullsmoor,42,EN1 4QS,-0.0488721336345533,51.6768443679757,f,t,t,LAL,,,f,
Ridge Avenue,42,N21 2RH,-0.0833378463765843,51.6357771954177,f,f,f,CRL,,,f,
Enfield Town,42,EN2 6AX,-0.0855387551003414,51.6521432877103,f,t,t,LAL,,,f,
Writtle library,43,CM1 3DT,0.426377122489209,51.7301096436817,f,t,t,LAL,,,f,
Brentwood library,43,CM144BP,0.303078057168834,51.6189578145518,f,t,t,LAL,,,f,
North Melbourne library,43,CM1 4UU,0.445545857029769,51.7546766874859,f,t,t,LAL,,,f,
Shenfield library,43,CM158NJ,0.326802807153858,51.6297580463859,f,t,t,LAL,,,f,
Epping library,43,CM165DN,0.109646949317523,51.6993548709802,f,t,t,LAL,,,f,
North Weald library,43,CM166BZ,0.172016769329814,51.7180198416303,f,t,t,LAL,,,f,
Springfield library,43,CM1 6GX,0.497584076423839,51.7510729124091,f,f,t,LAL,,2013,f,
Old Harlow library,43,CM170DW,0.133966734668822,51.7834274415493,f,t,t,LAL,,,f,
Broomfield library,43,CM1 7AH,0.473481449912219,51.7623384851813,f,t,t,LAL,,,f,
Tye Green library,43,CM186LU,0.11345469957135,51.7586820766758,f,t,t,LAL,,,f,
Great Parndon library,43,CM187PP,0.0932094372841162,51.7530014953429,f,t,t,LAL,,,f,
Harlow library,43,CM201HA,0.0945608462805724,51.7687412006136,f,t,t,LAL,,,f,
Mark Hall library,43,CM203AP,0.114814654467044,51.7750688886775,f,t,t,LAL,,,f,
Stansted library,43,CM248AQ,0.194569560515318,51.9033774322772,f,t,t,LAL,,,f,
Great Baddow library,43,CM2 7HH,0.501128085484042,51.7158255260506,f,t,t,LAL,,,f,
Galleywood library,43,CM2 8PU,0.470521561293267,51.7004116778422,f,t,t,LAL,,,f,
Hatfield Peverel library,43,CM3 2DP,0.59315538649499,51.7753523186232,f,t,t,LAL,,,f,
Danbury library,43,CM3 4NQ,0.578553481728722,51.717307769935,f,t,t,LAL,,,f,
South Woodham Ferrers library,43,CM3 5JU,0.619961286553916,51.6458924430937,f,t,t,LAL,,,f,
Stock library,43,CM4 9BQ,0.442352875529627,51.6648487653365,f,t,t,LAL,,,f,
Ingatestone library,43,CM4 9EU,0.381897943538049,51.6685818977229,f,t,t,LAL,,,f,
Chipping Ongar library,43,CM5 9AB,0.245351622048314,51.7064252214337,f,t,t,LAL,,,f,
Dunmow library,43,CM6 1FS,0.364382127289947,51.8715265167334,f,t,t,LAL,,,f,
Thaxted library,43,CM6 2PJ,0.342339670456637,51.9546906582089,f,t,t,LAL,,,f,
Braintree library,43,CM7 3YL,0.553624317675808,51.8777497518624,f,t,t,LAL,,,f,
Witham library,43,CM8 2AQ,0.641304922644529,51.8012326121157,f,t,t,LAL,,,f,
Wickham Bishops library,43,CM8 3NU,0.673953871492706,51.7769138330387,f,t,t,LAL,,,f,
Silver End library,43,CM8 3RB,0.621950803139193,51.8476391268843,f,t,t,LAL,,,f,
Maldon library,43,CM9 5FW,0.677875159943872,51.7307515377558,f,t,t,LAL,,,f,
Manningtree library,43,CO111AD,1.06335548092636,51.9453506953908,f,t,t,LAL,,,f,
Colchester library,43,CO1 1JB,0.899719282938903,51.8884853071776,f,t,t,LAL,,,f,
Harwich library,43,CO123JT,1.28165639349414,51.9365128823772,f,t,t,LAL,,,f,
Walton library,43,CO148AE,1.27154071224926,51.8490818019971,f,t,t,LAL,,,f,
Clacton library,43,CO151SF,1.1544012650801,51.7922029242049,f,t,t,LAL,,,f,
Holland library,43,CO155UR,1.18965583720346,51.8052730750199,f,t,t,LAL,,,f,
West Clacton library,43,CO168BE,1.11988724482269,51.792288121621,f,t,t,LAL,,,f,
Stanway library,43,CO3 0RH,0.837803678483606,51.8854989765178,f,t,t,LAL,,,f,
Prettygate library,43,CO3 4EQ,0.864771228967202,51.8799166396834,f,t,t,LAL,,,f,
Greenstead library,43,CO4 3QE,0.936913250266231,51.8913845707036,f,t,t,LAL,,,f,
Tiptree library,43,CO5 0SX,0.747261618809579,51.8111244106473,f,t,t,LAL,,,f,
West Mersea library,43,CO5 8QA,0.91114380029671,51.7766812941204,f,t,t,LAL,,,f,
Kelvedon library,43,CO5 9BA,0.697697635264243,51.8324715038105,f,t,t,LAL,,,f,
Coggeshall library,43,CO6 1UH,0.684951660739737,51.8729361855288,f,t,t,LAL,,,f,
Earls Colne library,43,CO6 2PA,0.698835612249941,51.927881708859,f,t,t,LAL,,,f,
Brightlingsea library,43,CO7 0BZ,1.02566862685531,51.8100330734176,f,t,t,LAL,,,f,
Wivenhoe library,43,CO7 9AB,0.95934633260058,51.857617298865,f,t,t,LAL,,,f,
Halstead library,43,CO9 1HU,0.634463637658837,51.9434598471057,f,t,t,LAL,,,f,
Sible Hedingham library,43,CO9 3PX,0.589931846189239,51.9804921829864,f,t,t,LAL,,,f,
Saffron Walden library,43,CB101ES,0.23993218575939,52.0234793212965,f,t,t,LAL,,,f,
Frinton library,43,,,,f,t,t,LAL,,,f,
Wickford library,43,SS120AG,0.518194485539907,51.6133070035774,f,t,t,LAL,,,f,
Pitsea library,43,SS133DU,0.50404321526786,51.5661522997618,f,t,t,LAL,,,f,
Basildon library,43,SS141EE,0.454688804676093,51.5709096728208,f,t,t,LAL,,,f,
Fryerns library,43,SS142NN,0.476798699460528,51.578619806425,f,t,t,LAL,,,f,
Laindon library,43,SS156AG,0.41955190168135,51.57369907435,f,t,t,LAL,,,f,
Vange library,43,SS164ET,0.482990061706537,51.5666897626717,f,t,t,LAL,,,f,
Great Wakering library,43,SS3 0EQ,0.808421172194654,51.5531791907534,f,t,t,LAL,,,f,
Rochford library,43,SS4 1PX,0.705845785148981,51.5830393380686,f,t,t,LAL,,,f,
Hockley library,43,SS5 4PZ,0.656484369348665,51.6002749400097,f,t,t,LAL,,,f,
Hullbridge library,43,SS5 6ET,0.612877966398146,51.6227664363671,f,t,t,LAL,,,f,
Rayleigh library,43,SS6 7BX,0.603654699850643,51.5853249829121,f,t,t,LAL,,,f,
Hadleigh library,43,SS7 2PD,0.608466728163848,51.5536510071505,f,t,t,LAL,,,f,
South Benfleet library,43,SS7 5HD,0.560225906972811,51.5536707488806,f,t,t,LAL,,,f,
Great Tarpots library,43,SS7 5UH,0.551614206553987,51.5676003151676,f,t,t,LAL,,,f,
Canvey Island library,43,SS8 7RB,0.594480281981584,51.5231045950218,f,t,t,LAL,,,f,
Waltham Abbey library,43,EN9 1EL,-0.000231983577811144,51.6866282963623,f,t,t,LAL,,,f,
Loughton library,43,IG101HD,0.0589904189227555,51.6491582254205,f,t,t,LAL,,,f,
Debden library,43,IG103SA,0.0754491821760494,51.6483918286141,f,t,t,LAL,,,f,
Chigwell library,43,IG7 6QX,0.0777508044536235,51.6181089707517,f,t,t,LAL,,,f,
Buckhurst Hill library,43,IG9 5AZ,0.0368964471209108,51.6261269982061,f,t,t,LAL,,,f,
Southminster library,43,CM0 7AD,0.829538150545233,51.6647972463122,f,t,t,LAL,,,f,
Burnham-on-Crouch library,43,CM0 8HQ,0.81449669138691,51.628158685835,f,t,t,LAL,,,f,
Chelmsford library,43,,,,f,t,t,LAL,,,f,
Billericay library,43,CM129AB,0.415580829545954,51.6229013919887,f,t,t,LAL,,,f,
Lobley Hill,44,NE119LS,-1.63698033360539,54.941996000822,f,f,f,CRL,,,f,
Dunston Library,44,NE119SS,-1.64102457520456,54.9506168694411,f,f,f,CRL,,,f,
Leam Lane Library,44,NE108QH,-1.54651317937633,54.9399400895202,f,t,t,LAL,,,f,
Felling Library,44,NE109LT,-1.57074117732525,54.9514136601115,f,t,t,LAL,,,f,
Whickham Library,44,NE164DN,-1.67731352126055,54.9462163809076,f,t,t,LAL,,,f,
Chopwell Library,44,NE177HZ,-1.81652099045246,54.918612446755,f,t,t,LAL,,,f,
Blaydon Library,44,NE215BT,-1.70947064091156,54.9638835110806,f,t,t,LAL,,,f,
Winlaton,44,NE216AW,-1.72776678998069,54.9535736422326,f,f,f,CRL,,,f,
Rowlands Gill Library,44,NE391JT,-1.74496542094466,54.9203167311422,f,t,t,LAL,,,f,
Ryton,44,NE403LT,-1.76341303869424,54.9723844426721,f,f,f,CRL,,,f,
Crawcrook Library,44,NE404NB,-1.78912412448341,54.9667883342272,f,t,t,LAL,,,f,
Birtley Library,44,DH3 1LE,-1.5771534056272,54.8967991058414,f,t,t,LAL,,,f,
Sunderland Road,44,NE8 3PA,-1.59029779587025,54.9567200959931,f,f,f,CRL,,,f,
Wrekenton Library,44,NE9 7JR,-1.57484119028336,54.9253676997069,f,f,f,CRL,,,f,
Low Fell,44,NE9 6HT,-1.59760303884432,54.9304145748766,f,f,f,CRL,,,f,
Gateshead Central Library,44,NE8 4LN,-1.60129905546689,54.9511851348983,f,t,t,LAL,,,f,
Hucclecote ,45,GL3 3RT,-2.19266080098574,51.8569377283782,f,t,t,LAL,,,f,
Brockworth Community Library,45,GL3 4EX,-2.1571566803096,51.8477479159929,f,f,f,CRL,,,f,
Tuffley ,45,GL4 0RT,-2.26280184713432,51.8287679962698,f,t,t,LAL,,,f,
Matson ,45,GL4 6NG,-2.215113704014,51.8397710232115,f,t,t,LAL,,,f,
Cheltenham ,45,GL503JT,-2.07806004450894,51.9013679087818,f,t,t,LAL,,,f,
Up Hatherley ,45,GL513BW,-2.10787784996492,51.8805663992108,f,t,t,LAL,,,f,
Hesters Way ,45,GL517RT,-2.11269601325828,51.9017713238899,f,t,t,LAL,,,f,
Stroud ,45,GL5 1BB,-2.21598810984918,51.7465324698563,f,t,t,LAL,,,f,
Prestbury ,45,GL523DN,-2.04857032054594,51.9148880743591,f,t,t,LAL,,,f,
Bishop's Cleeve ,45,GL528NN,-2.05948731565189,51.9466475402274,f,t,t,LAL,,,f,
Charton Kings ,45,GL538AR,-2.05072845457651,51.8820525724268,f,t,t,LAL,,,f,
Stow on Wold ,45,GL541AF,-1.72249079540659,51.9304854911365,f,t,t,LAL,,,f,
Bourton on Water ,45,GL542AZ,-1.75679042320447,51.8863082873805,f,t,t,LAL,,,f,
Winchcombe ,45,GL545PZ,-1.96786798243055,51.9543814606243,f,t,t,LAL,,,f,
Chipping Campden ,45,GL556AT,-1.78135172025636,52.0496375964302,f,t,t,LAL,,,f,
Moreton in Marsh ,45,GL560DR,-1.70329895905364,51.9869817837034,f,t,t,LAL,,,f,
Nailsworth ,45,GL6 0DU,-2.21917028764291,51.69478256818,f,t,t,LAL,,,f,
Painswick Community Library,45,GL6 6QA,-2.19427118393213,51.7858883478958,f,f,f,CRL,,,f,
Minchinhampton community library,45,GL6 9BP,-2.18745852767285,51.7057438010007,f,f,f,CRL,,,f,
Cirencester ,45,GL7 2PZ,-1.96557394677503,51.7175413065552,f,t,t,LAL,,,f,
Lechlade Community Library,45,GL7 3AB,-1.69098121074276,51.6939164476023,f,f,f,CRL,,,f,
Tetbury ,45,GL8 8DU,-2.16197494292708,51.6370979156692,f,t,t,LAL,,,f,
Fairford ,45,GL7 4AQ,-1.77992136404409,51.7073245415862,f,t,t,LAL,,,f,
Stonehouse,45,GL102NP,-2.28497439842842,51.7483183916019,f,t,t,LAL,,,f,
Dursley ,45,GL114JH,-2.35702947522614,51.6811641825091,f,t,t,LAL,,,f,
Gloucester ,45,GL1 1HT,-2.24506723053796,51.863043861237,f,t,t,LAL,,,f,
Wotton ,45,GL127JJ,-2.34957503095937,51.6372463468859,f,t,t,LAL,,,f,
Berkeley Community Library,45,GL139DQ,-2.45997830403608,51.6922338271755,f,f,f,CRL,,,f,Opened Nov 2012 as a community library
Newnham Community library,45,GL141BB,-2.44957082761254,51.8039621488182,f,f,f,CRL,,,f,
Cinderford ,45,GL142BZ,-2.49655071084964,51.822870066348,f,t,t,LAL,,,f,
Lydney ,45,GL155HW,-2.53366939613523,51.7262325723291,f,t,t,LAL,,,f,
Bream Community Library,45,GL156JW,-2.57369761422718,51.751084383105,f,f,f,CRL,,,f,
Coleford ,45,GL168RH,-2.61534366505099,51.7914597723304,f,t,t,LAL,,,f,
Mitcheldean Community Library,45,GL170HN,-2.48940590129106,51.8650948445001,f,f,f,CRL,,,f,
Newent ,45,GL181AS,-2.40729384559867,51.9324081364435,f,t,t,LAL,,,f,
Tewkesbury ,45,GL205NX,-2.15543339403279,51.9960807864304,f,t,t,LAL,,,f,
Longlevens ,45,GL2 0AJ,-2.21203250434215,51.875911159653,f,t,t,LAL,,,f,
Quedgeley ,45,GL2 4PE,-2.27899832249433,51.8268065868724,f,t,t,LAL,,,f,
Churchdown ,45,GL3 2AF,-2.1811949408822,51.8870125543393,f,t,t,LAL,,,f,
Slade Centre Library,46,SE182QQ,0.085551608135652,51.4790328843565,f,t,t,CL,,,f,
New Eltham Library,46,SE9 3QT,0.0689636190594644,51.4364399528972,f,t,t,CL,,,f,
Coldharbour Library,46,SE9 3AY,0.0572933194381675,51.4303234082948,f,t,t,CL,,,f,
Eltham Centre Library,46,SE9 1HA,0.0577719807972787,51.451538114906,f,t,t,CL,,,f,
Charlton Library,46,SE7 8RE,0.0371544879691093,51.4804773048815,f,t,t,CL,,,f,
Blackheath Library,46,SE3 7BT,0.0212570542795443,51.4769485094371,f,t,t,CL,,,f,
Abbey Wood Library,46,SE2 9PT,0.110166858490224,51.493754378753,f,t,t,CL,,,f,
Claude Ramsey (Thamesmere),46,SE288DT,0.113246803177345,51.508015502069,f,t,t,CL,,,f,
Woolwich Library,46,SE186HQ,0.0655863430320081,51.4894492663705,f,f,t,CL,,2011,f,
West Greenwich Library,46,SE108NN,-0.0113007630673927,51.4779998667071,f,t,t,CL,,,f,
Greenwich Centre Library,46,SE109GB,0.00855298808674887,51.4860696333622,f,t,t,CL,,,f,
Plumstead Library,46,SE181JL,0.0966602250491372,51.4863617588747,f,t,t,CL,,,f,
Hackney Central Library,47,E8  1GQ,-0.0560973932244808,51.5444780875244,f,t,t,LAL,,,f,
Woodberry Down Library,47,N4  2HF,-0.091523472388737,51.5705355045132,f,t,t,LAL,,,f,
Homerton Library,47,E9  6AS,-0.0405769166736586,51.5488960249368,f,t,t,LAL,,,f,
Dalston CLR James Library,47,E8  3BQ,-0.0738560010096905,51.5457242127888,f,f,t,LAL,,2012,f,
Shoreditch Library,47,N1  6LP,-0.0801444859373029,51.530297169496,f,t,t,LAL,,,f,
Stamford Hill Library,47,N16 6SB,-0.0724393360161062,51.5703674399288,f,t,t,LAL,,,f,
Stoke Newington Library,47,N16 0JS,-0.0828220440992564,51.5616169771674,f,t,t,LAL,,,f,
Clapton Library,47,E5  8RA,-0.0601866825558971,51.5626028072726,f,t,t,LAL,,,f,
Halton Lea,48,WA7 2PF,-2.69771747482152,53.3290375697859,f,t,t,LAL,,,f,
Castlefields community centre,48,WA7 2HY,-2.69192689146641,53.3377095829032,f,f,t,LAL,,2013,f,
Runcorn,48,WA7 1NE,-2.73329025504742,53.3422805077552,f,t,t,LAL,,,f,
Ditton,48,WA8 8HR,-2.76941895327635,53.3676352443065,f,t,t,LAL,,,f,
Widnes,48,WA8 7QY,-2.73331567882739,53.3621367001399,f,t,t,LAL,,,f,
Shepherds Bush,49,W6  7AT,-0.223689813606048,51.4945836668893,f,t,t,LAL,,,f,
Askew Road,49,W12 9AS,-0.242953700760724,51.5031199065933,f,t,t,LAL,,,f,
Hammersmith,49,W6  7AT,-0.223689813606048,51.4945836668893,f,t,t,LAL,,,f,
Hurlingham and Chelsea School and Community library,49,SW6 3ED,-0.196524477254464,51.4678210658858,f,f,f,CRL,,,f,
Fulham,49,SW6 5NX,-0.202704143169727,51.4772681496319,f,t,t,LAL,,,f,
Barons Court Library,49,W14 8TG,-0.207143954056643,51.4925783564109,t,f,f,,2010,,f,replaced by the new Avonmore library
Avonmore library and neighbourhood centre,49,W14 8TG,-0.207143954056643,51.4925783564109,f,t,t,,,2010,t,"replaced the Barons Court library. This is a self service facility, run by volunteers"
Liphook ,50,GU307AN,-0.8009304428156,51.0789473826029,f,t,t,LAL,,,f,
Lee-on-the-Solent ,50,PO139BZ,-1.19983253561842,50.8000827026459,f,t,t,LAL,,,f,
Stubbington ,50,PO142PP,-1.21489728979804,50.8232602866934,f,t,t,LAL,,,f,
Fareham ,50,PO167EN,-1.17730265450961,50.8539901069877,f,t,t,LAL,,,f,
Portchester ,50,PO169TX,-1.12641283333688,50.8464891914095,f,t,t,LAL,,,f,
West End ,50,SO303FE,-1.33571678209209,50.9291423127039,f,t,t,LAL,,,f,
Milford-on-Sea ,50,SO410QU,-1.58723352806874,50.7260538474284,f,t,t,LAL,,,f,
Emsworth ,50,PO107AQ,-0.936729845713187,50.8463992996443,f,t,t,LAL,,,f,
Hordean ,50,PO8 9NW,-1.00092312316721,50.9140429395907,f,t,t,LAL,,,f,
Farnborough ,50,GU147JZ,-0.755749225181911,51.289895692284,f,t,t,LAL,,,f,
Winchester Discovery Centre ,50,SO238SB,-1.31605075299588,51.0659467020153,f,t,t,LAL,,,f,
Aldershot ,50,GU111DQ,-0.761693255887665,51.2496373428937,f,t,t,LAL,,,f,
Waterlooville ,50,PO7 7DT,-1.03022182957824,50.8800278811341,f,t,t,LAL,,,f,
Leigh Park ,50,PO9 5AB,-0.985863815077649,50.8666655294638,f,t,t,LAL,,,f,
Totton ,50,SO403RS,-1.48947822889454,50.9200327388166,f,t,t,LAL,,,f,
Chandlers Ford ,50,SO532LH,-1.37284258941754,50.987222685737,f,t,t,LAL,,,f,
North Baddesley Community ,50,SO529EN,-1.43647516193393,50.9761804756221,f,f,f,CRL,,,f,
Bishops Waltham,50,SO321EE,-1.20828561172377,50.9564047576131,f,t,t,LAL,,,f,
Kingsclere ,50,RG205NH,-1.24512914704316,51.3248695562519,f,t,t,LAL,,,f,
Basingstoke Discovery Centre ,50,RG217LS,-1.08757708515384,51.2641133957498,f,t,t,LAL,,,f,
Alresford ,50,,,,f,t,t,LAL,,,f,
South Ham ,50,RG226QB,-1.11797908525514,51.2587442742531,f,t,t,LAL,,,f,
Chineham ,50,RG248BQ,-1.05970605523312,51.2841880281847,f,t,t,LAL,,,f,
Overton ,50,RG253HB,-1.26449261050918,51.2438402935272,f,t,t,LAL,,,f,
Romsey ,50,SO518DN,-1.49661849284921,50.9913642773503,f,t,t,LAL,,,f,
Tadley ,50,RG263JE,-1.14150429564566,51.3552142310233,f,t,t,LAL,,,f,
Fordingbridge ,50,SP6 1AQ,-1.79058844875878,50.9276146406904,f,t,t,LAL,,,f,
Odiham ,50,RG291NB,-0.939905703649941,51.2529422766573,f,t,t,LAL,,,f,
Fair Oak ,50,SO507AX,-1.30132886499615,50.9659006979061,f,t,t,LAL,,,f,
Eastleigh ,50,SO505SF,-1.35387838206787,50.9667875883081,f,t,t,LAL,,,f,
Ringwood ,50,BH241DW,-1.78884414157225,50.8444585406921,f,t,t,LAL,,,f,
New Milton ,50,BH256RW,-1.65918472961392,50.7522660161594,f,t,t,LAL,,,f,
Lowford Community ,50,SO318ES,-1.31742357668149,50.8898385189501,f,f,f,CRL,,,f,
Lockswood ,50,SO316DX,-1.27497996496435,50.8635762062425,f,t,t,LAL,,,f,
Netley ,50,SO315DT,-1.35253351650281,50.8728896790879,f,t,t,LAL,,,f,
Gosport Discovery Centre ,50,PO121BT,-1.12493897180524,50.7946440826519,f,t,t,LAL,,,f,
Hayling Island ,50,PO119EE,-0.977501815083676,50.7915387678203,f,t,t,LAL,,,f,
Lyndhurst ,50,SO437NY,-1.57467752818303,50.8719136577733,f,t,t,LAL,,,f,
Hythe ,50,SO456AQ,-1.3995671423506,50.8691303160396,f,t,t,LAL,,,f,
Blackfield ,50,SO451XA,-1.37350897308266,50.8189047105873,f,t,t,LAL,,,f,
Stanmore ,50,SO224EJ,-1.3366892963378,51.0517948552676,f,f,f,CRL,,,f,
Andover ,50,SP101LT,-1.47997165947783,51.2083261807286,f,t,t,LAL,,,f,
Whitchurch ,50,RG287HP,-1.33824935272894,51.226485166542,f,t,t,LAL,,,f,
Hedge End ,50,SO304DY,-1.30445844189209,50.9136371722188,f,t,t,LAL,,,f,
Havant ,50,PO9 1UN,-0.982448761364969,50.8525082171568,f,t,t,LAL,,,f,
Gosport Canal and Local Studies ,50,PO121NS,-1.12535685154241,50.7950608827578,f,t,t,LAL,,,f,
Elson ,50,PO124NG,-1.14673669899519,50.8084475002892,f,t,t,LAL,,,f,
Fleet ,50,GU514BX,-0.845576801556811,51.2786311948169,f,t,t,LAL,,,f,
Bridgemary ,50,PO130LA,-1.17062467554448,50.8211825289993,f,t,t,LAL,,,f,
Lymington ,50,SO419BW,-1.54169381438453,50.7614409530748,f,t,t,LAL,,,f,
Yateley ,50,GU466NL,-0.839013161745184,51.3382203002308,f,t,t,LAL,,,f,
Bordon ,50,GU350TN,-0.857989788981232,51.1091128295842,f,t,t,LAL,,,f,
Alton ,50,GU341HT,-0.976144294252844,51.1496293029148,f,t,t,LAL,,,f,
Petersfield ,50,GU323HH,-0.93825380777642,51.0037668819238,f,t,t,LAL,,,f,
Highgate Library,51,N6  5QJ,-0.142529816984287,51.5773699201304,f,t,t,LAL,,,f,
Coombes Croft Library,51,N17 8AD,-0.0682237549483528,51.6007017299144,f,t,t,LAL,,,f,
St Anns Library,51,N15 5PU,-0.0827469539808137,51.5815790863169,f,t,t,LAL,,,f,
Marcus Garvey Library,51,N15 4JA,-0.0741633685425217,51.5882998025353,f,t,t,LAL,,,f,
Muswell Hill Library,51,N10 3PE,-0.146277833483446,51.5916641567464,f,t,t,LAL,,,f,
Hornsey Library,51,N8  9JA,-0.12156181010493,51.5783670358864,f,t,t,LAL,,,f,
Stroud Green and Harringay Library,51,N4  4QR,-0.106798574439346,51.5779859103374,f,t,t,LAL,,,f,
Alexandra Park Library,51,N22 7UJ,-0.136118149908808,51.5989759318392,f,t,t,LAL,,,f,
Wood Green Central Library,51,N22 6XD,-0.109664530486349,51.5955224097366,f,t,t,LAL,,,f,
Rayners Lane,52,HA2 7HJ,-0.370374151619194,51.5760340393252,t,f,f,,2015,,f,
Roxeth,52,HA2 8EQ,-0.35654210272431,51.5626136397006,f,t,t,CL,,,f,
Wealdstone,52,HA3 7AE,-0.334961237174098,51.5941418129814,f,t,t,CL,,,f,
Kenton,52,HA3 8UJ,-0.310088302357886,51.5913494535272,f,t,t,CL,,,f,
Hatch End,52,HA5 4EA,-0.362526207135369,51.6084764067531,t,f,f,,2015,,f,
Pinner,52,HA5 5NQ,-0.379122012249248,51.5901649543253,f,t,t,CL,,,f,
Stanmore,52,HA7 3BQ,-0.311653807335379,51.6184294838882,f,t,t,CL,,,f,
Bob Lawrence,52,HA8 5QH,-0.278604477864817,51.5981666510845,t,f,f,,2015,,f,
Gayton,52,HA1 2EE,-0.331638315522171,51.581595479823,f,t,t,CL,,,f,
North Harrow,52,HA1 4HN,-0.358863478172929,51.5842903191915,f,f,f,CRL,,,f,
Owton Manor Library,53,TS253LQ,-1.23871052534974,54.6611627543002,f,t,t,LAL,,,f,
Hartlepool Central Library,53,TS269DE,-1.21646931079848,54.6842881361451,f,t,t,LAL,,,f,
Throston Grange Library,53,TS260XR,-1.24130967222568,54.696389700808,f,t,t,LAL,,,f,
Foggy Furze,53,TS255BQ,-1.21834494624819,54.6706221658077,t,f,f,,2011,,f,
Headland Library,53,TS240JD,-1.183815352992,54.696034268531,f,t,t,LAL,,,f,
West View,53,TS249JQ,-1.22421590558934,54.7067242770342,t,f,f,,2011,,f,
Seaton Carew Library,53,TS251BN,-1.19124596430248,54.6609811177694,f,t,t,LAL,,,f,
Harold Wood Library,54,RM3 0RX,0.234242632810582,51.5954590892495,f,f,t,LAL,,2016,f,
South Hornchurch Library,54,RM137RD,0.187532489325264,51.5302147006444,f,t,t,LAL,,,f,
Elm Park Library,54,RM124PT,0.198213592257,51.5520026228858,f,t,t,LAL,,,f,
Romford Central Library,54,RM1 3AR,0.183493611217873,51.5807758455097,f,t,t,LAL,,,f,
Hornchurch Library,54,RM111TB,0.220551456866276,51.564900390522,f,t,t,LAL,,,f,
Gidea Park Library,54,RM2 6BS,0.205886468667578,51.5799972834955,f,t,t,LAL,,,f,
Rainham Library,54,RM139GP,0.191122886065065,51.5170090434249,f,f,t,LAL,,2014,t,replaced the old Rainham library
Harold Hill Library,54,RM3 8DJ,0.220345523784207,51.6083398210488,f,t,t,LAL,,,f,
Rainham Library,54,,,,t,t,f,,2014,,f,replaced by the new Rainham library
Collier Row Library,54,RM5 3NR,0.161491062501079,51.5986112305802,f,t,t,LAL,,,f,
Upminster Library,54,RM142BB,0.248033257827973,51.5557168028179,f,t,t,LAL,,,f,
Bromyard ,55,HR7 4EB,-2.50769773474916,52.1899695060392,f,t,t,LAL,,,f,
Ledbury ,55,HR8 2AA,-2.42411834089506,52.0368305069418,f,t,t,LAL,,,f,
Leintwardine ,55,SY7 0LZ,-2.86437513390585,52.3553615602523,f,f,f,CRL,,,f,
Ross-on-Wye ,55,HR9 7AN,-2.57956319739622,51.9148367263004,f,t,t,LAL,,,f,
Belmont ,55,HR2 7UQ,-2.73898325267743,52.0405983808704,f,t,t,LAL,,,f,
Colwall ,55,WR136QT,-2.36033034735854,52.0792360820807,f,t,t,LAL,,,f,
Weobley ,55,HR4 8SG,-2.87602179138252,52.1592725362446,f,f,f,CRL,,,f,
Peterchurch ,55,HR2 0RS,-2.95560461759779,52.0404338342873,f,f,f,CRL,,,f,
Hereford ,55,HR4 9AU,-2.71750135900132,52.0547748071471,f,t,t,LAL,,,f,
Kington,55,HR5 3DJ,-3.02848942198843,52.203480694409,f,t,t,LAL,,,f,
Leominster ,55,HR6 8BN,-2.73939398578852,52.2277636072476,f,t,t,LAL,,,f,
Bovingdon,56,HP3 0HJ,-0.532166882739268,51.7227498932189,f,t,t,LAL,,,f,
Berkhamsted,56,HP4 3BD,-0.566226159532177,51.7595869490717,f,t,t,LAL,,,f,
Leverstock Green (Hemel Hempstead),56,HP3 8QG,-0.431631701635438,51.7482648844202,f,t,t,LAL,,,f,
Adeyfield (Hemel Hempstead),56,HP2 4EW,-0.45140531749283,51.7554687785211,f,t,t,LAL,,,f,
Tring,56,HP234AF,-0.664337941560454,51.793373184059,f,t,t,LAL,,,f,
Stevenage (Central),56,SG1 1HD,-0.201490920163879,51.8996938381702,f,t,t,LAL,,,f,
Ware,56,SG129AD,-0.0340800055249473,51.8115364071078,f,t,t,LAL,,,f,
Hemel Hempstead,56,,,,f,t,t,LAL,,,f,
Watford central,56,WD173EU,-0.403096987775457,51.6602090829095,f,t,t,LAL,,,f,
Oxhey Library (South Oxhey),56,WD197AG,-0.389062479710319,51.6270525392292,f,t,t,LAL,,,f,
Bushey,56,WD231FA,-0.352945943173773,51.6385469178934,f,t,t,LAL,,,f,
North Watford,56,WD247RW,-0.394376473934534,51.6803132219785,f,t,t,LAL,,,f,
Stevenage (Old Town),56,SG1 3EF,-0.209171737191838,51.9126963466407,f,t,t,LAL,,,f,
Hertford,56,SG141DR,-0.0785805508583617,51.7967065788212,f,f,t,LAL,,2012,f,
Hatfield,56,AL100LT,-0.227359537421275,51.7623024657362,f,t,t,LAL,,,f,
Rickmansworth,56,WD3 1EH,-0.468044171605032,51.6391607719455,f,t,t,LAL,,,f,
Croxley Green,56,WD3 3HB,-0.44729548765333,51.6483658163981,f,t,t,LAL,,,f,
Chorleywood,56,WD3 5LB,-0.518302016487301,51.6525831984715,f,f,f,CRL,,,f,
Kings Langley,56,WD4 8ET,-0.448460226368482,51.7132940511793,f,t,t,LAL,,,f,
Abbots Langley,56,WD5 0AP,-0.419735662353909,51.7051601945971,f,t,t,LAL,,,f,
Borehamwood,56,WD6 1EB,-0.274307408285081,51.6562740889994,f,f,t,LAL,,2013,f,
Radlett,56,WD7 8HL,-0.317332808623919,51.682004380304,f,t,t,LAL,,,f,
Knebworth,56,SG3 6ER,-0.180361132379252,51.8657570902986,f,t,t,LAL,,,f,
Weston,56,SG4 7DE,-0.170045048971698,51.9545451765603,f,f,f,ICL,,,f,
Hitchin,56,SG5 1EW,-0.281691875363125,51.9481799900689,f,t,t,LAL,,,f,
Letchworth,56,SG6 3PF,-0.229583723905774,51.9766581668182,f,t,t,LAL,,,f,
Baldock,56,SG7 6DH,-0.186474161507098,51.9884737603581,f,t,t,LAL,,,f,
Royston,56,SG8 9JN,-0.0221816057268355,52.0467945176212,f,t,t,LAL,,,f,refurbished in 2014
Buntingford,56,SG9 9AE,-0.0205487012102737,51.9487094354719,f,t,t,LAL,,,f,
Brookmans Park,56,AL9 7QR,-0.201864354677076,51.7223049066261,f,t,t,LAL,,,f,
Welwyn Garden City (central),56,AL8 6AJ,-0.207689208130705,51.8056156236791,f,t,t,LAL,,,f,
Woodhall,56,AL7 3JA,-0.190587983670921,51.7911192764028,f,t,t,LAL,,,f,
Welwyn Garden City (performing arts library),56,AL7 1HT,-0.199643104056967,51.8047823275492,f,t,t,LAL,,,f,
Welwyn,56,AL6 9ER,-0.213296265620263,51.8292510116053,f,t,t,LAL,,,f,
Harpenden,56,AL5 2RU,-0.355711652650041,51.8159792917726,f,t,t,LAL,,,f,
Marshalswick (St Albans),56,AL4 9TU,-0.305985549945298,51.7631382313422,f,t,t,LAL,,,f,
Wheathamstead,56,AL4 8AY,-0.291013405319986,51.8111633449459,f,t,t,LAL,,,f,
Redbourn,56,,,,f,t,t,LAL,,,f,
Cuffley,56,EN6 4JA,-0.11310637258022,51.7081709764934,f,t,t,LAL,,,f,
Hoddesdon,56,EN118HD,-0.0113125594239,51.7608956132045,f,t,t,LAL,,,f,
London Colney,56,AL2 1PU,-0.299410214349222,51.7229209386463,f,t,t,LAL,,,f,
St Albans,56,AL1 3JQ,-0.337399182257155,51.7509980348265,f,t,t,LAL,,,f,
Bishops Stortford,56,CM232EJ,0.162730278245318,51.8700297235099,f,t,t,LAL,,,f,
Sawbridgeworth,56,CM219BD,0.155425039335984,51.8135384375429,f,t,t,LAL,,,f,
Cheshunt,56,EN8 8LB,-0.0332048056501271,51.6999362826044,f,t,t,LAL,,,f,
Waltham Cross,56,EN8 7AN,-0.0335401457444056,51.6861925360463,f,t,t,LAL,,,f,
Goffs Oak,56,EN7 5ET,-0.0859567603970515,51.7101417013165,f,t,t,LAL,,,f,
Oakmere Library (Potters Bar),56,EN6 5BZ,-0.173291683226238,51.6980438291651,f,t,t,LAL,,,f,
Yeading Library,57,UB4 0EW,-0.403321184094108,51.5212389686158,f,t,t,LAL,,,f,
Oak Farm Library,57,UB109PB,-0.449476502106014,51.5445363031526,f,t,t,LAL,,,f,
Botwell Green Library,57,UB3 2HW,-0.418050843661967,51.507554552051,f,t,t,LAL,,,f,
Harlington Library,57,UB3 1PB,-0.436521357609119,51.4971104642953,f,t,t,LAL,,,f,
Northwood Hills Library,57,HA6 1QQ,-0.408303161264711,51.6027935574864,f,t,t,LAL,,,f,
Uxbridge Library,57,UB8 1HD,-0.478297681436293,51.5451833828949,f,t,t,LAL,,,f,
Hayes End Library,57,UB4 8QJ,-0.421220257919339,51.5255007336042,f,t,t,LAL,,,f,
Charville Library,57,UB4 8LF,-0.428540565613461,51.5360479290421,f,t,t,LAL,,,f,
Northwood Library,57,HA6 3AA,-0.425138943771985,51.6124263344812,f,t,t,LAL,,,f,
Eastcote Library,57,HA5 1RL,-0.400381685655175,51.580016750227,f,t,t,LAL,,,f,
Ruislip Manor Library,57,HA4 8TW,-0.410906511354242,51.5728850909658,f,t,t,LAL,,,f,
Manor Farm Library,57,HA4 7SU,-0.429576819319345,51.5784057844368,f,t,t,LAL,,,f,
South Ruislip Library,57,HA4 0JE,-0.395030596134026,51.5573823766406,f,t,t,LAL,,,f,
Ickenham Library,57,UB108RE,-0.442995384376605,51.5632979841013,f,t,t,LAL,,,f,
Harefield Library,57,UB9 6BJ,-0.483577292500411,51.604554379539,f,t,t,LAL,,,f,
West Drayton Library,57,UB7 7JS,-0.469970658819788,51.5053567892881,f,t,t,LAL,,,f,
Yiewsley Library,57,UB7 7BE,-0.473747803134974,51.5147848241848,f,t,t,LAL,,,f,
Hounslow Library,58,TW3 1ES,-0.363048808680822,51.4681329462814,f,t,t,CL,,,f,
Heston Library,58,TW5 0LW,-0.375448225399907,51.4858763564948,f,t,t,CL,,,f,
Cranford Library,58,TW5 9TL,-0.405724261245722,51.47800097384,f,t,t,CL,,,f,
Osterley Library,58,TW7 4NB,-0.346452520012292,51.4823597592806,f,t,t,CL,,,f,
Isleworth Library,58,TW7 5EU,-0.328809424885357,51.4780451146787,f,t,t,CL,,,f,
Brentford Library ,58,TW8 8DW,-0.308412418625968,51.4867630035621,f,t,t,CL,,,f,
Chiswick Library,58,W4  2AB,-0.261111318362631,51.491691414995,f,t,t,CL,,,f,
Beavers Library,58,TW4 7NW,-0.396678096772861,51.4694518655975,f,t,t,CL,,,f,
Bedfont Library,58,,,,f,t,t,CL,,,f,
Hanworth Library,58,TW136AW,-0.388092310918991,51.4401630526438,f,t,t,CL,,,f,
Feltham Library,58,,,,f,t,t,CL,,,f,
Niton - Edward Edwards community library,59,PO382AZ,-1.28431587482669,50.5872490527859,f,f,f,CRL,,,f,
Bembridge community library,59,PO355NA,-1.09100129810142,50.6905980444252,f,f,f,CRL,,,f,
Sandown,59,PO368AF,-1.15094662677839,50.6558515992056,f,t,t,LAL,,,f,
Ventnor,59,PO381LZ,-1.20033012108005,50.5968021356949,f,t,t,LAL,,,f,
Shanklin community library,59,PO376PG,-1.18020906989117,50.6277961432112,f,f,f,CRL,,,f,
Lord Louis,59,PO301LL,-1.29363713754292,50.6977929975026,f,t,t,LAL,,,f,
Brighstone community library,59,PO304AX,-1.39569744773466,50.6436810020244,f,f,f,CRL,,,f,
Cowes,59,PO317SG,-1.29839775894946,50.7602137143023,f,t,t,LAL,,,f,
East Cowes community library,59,PO326QY,-1.28868927739995,50.7581135751105,f,f,f,CRL,,,f,
Ryde,59,PO332JE,-1.16149987351153,50.7281499922383,f,t,t,LAL,,,f,
Freshwater,59,PO409AP,-1.52331161653872,50.6825100683572,f,t,t,LAL,,,f,
Archway Library,60,N19 5PH,-0.135633314366287,51.5656783045324,f,t,t,LAL,,,f,
North Library,60,N7  6JX,-0.121958349822649,51.5603435192284,f,t,t,LAL,,,f,
Islington Central Library,60,N5  1PF,-0.107155883825671,51.5492337365716,f,t,t,LAL,,,f,
